nightmarket_id,nightmarket_name,nightmarket_latitude,nightmarket_longitude,nightmarket_area_road,nightmarket_zipcode,nightmarket_zipcode_name,nightmarket_rating,nightmarket_region,nightmarket_city,nightmarket_url,nightmarket_northeast_latitude,nightmarket_northeast_longitude,nightmarket_southwest_latitude,nightmarket_southwest_longitude,nightmarket_opening_hours
3290283502934197565,南機場夜市,25.0291811,121.5059244,中正區中華路二段307巷,100,中正區,4.3,北部,臺北市,https://maps.google.com/?cid=3290283502934197565,25.0305631802915,121.5072430802915,25.0278652197085,121.5045451197085,"""weekday"": 0, ""open"": ""17:00"", ""close"": ""00:00"" / ""weekday"": 1, ""open"": ""17:00"", ""close"": ""00:00"" / ""weekday"": 2, ""open"": ""17:00"", ""close"": ""00:00"" / ""weekday"": 3, ""open"": ""17:00"", ""close"": ""00:00"" / ""weekday"": 4, ""open"": ""17:00"", ""close"": ""00:00"" / ""weekday"": 5, ""open"": ""17:00"", ""close"": ""00:00"" / ""weekday"": 6, ""open"": ""17:00"", ""close"": ""00:00"""
17328957700901044673,臺北市公館觀光夜市,25.0137201,121.5347221,大安區羅斯福路四段90巷,100,中正區,4.1,北部,臺北市,https://maps.google.com/?cid=17328957700901044673,25.0150526302915,121.5360884302915,25.0123546697085,121.5333904697085,"""weekday"": 0, ""open"": ""15:00"", ""close"": ""23:45"" / ""weekday"": 1, ""open"": ""15:00"", ""close"": ""23:45"" / ""weekday"": 2, ""open"": ""15:00"", ""close"": ""23:45"" / ""weekday"": 3, ""open"": ""15:00"", ""close"": ""23:45"" / ""weekday"": 4, ""open"": ""15:00"", ""close"": ""23:45"" / ""weekday"": 5, ""open"": ""15:00"", ""close"": ""23:45"" / ""weekday"": 6, ""open"": ""15:00"", ""close"": ""23:45"""
15682621648838008006,大龍街夜市,25.0714662,121.5159014,大同區大龍街296-298號號,103,大同區,3.9,北部,臺北市,https://maps.google.com/?cid=15682621648838008006,25.0728150802915,121.5172303302915,25.0701171197085,121.5145323697085,"""weekday"": 0, ""open"": ""16:00"", ""close"": ""00:00"" / ""weekday"": 1, ""open"": ""16:00"", ""close"": ""23:20"" / ""weekday"": 2, ""open"": ""16:00"", ""close"": ""23:20"" / ""weekday"": 3, ""open"": ""16:00"", ""close"": ""23:20"" / ""weekday"": 4, ""open"": ""16:00"", ""close"": ""23:20"" / ""weekday"": 5, ""open"": ""16:00"", ""close"": ""23:20"" / ""weekday"": 6, ""open"": ""16:00"", ""close"": ""00:00"""
11738230280794280116,寧夏夜市,25.0566808,121.5153641,大同區寧夏路,103,大同區,4.2,北部,臺北市,https://maps.google.com/?cid=11738230280794280116,25.0577495302915,121.5167391802915,25.05505156970849,121.5140412197085,"""weekday"": 0, ""open"": ""17:00"", ""close"": ""23:30"" / ""weekday"": 1, ""open"": ""17:00"", ""close"": ""23:30"" / ""weekday"": 2, ""open"": ""17:00"", ""close"": ""23:30"" / ""weekday"": 3, ""open"": ""17:00"", ""close"": ""23:30"" / ""weekday"": 4, ""open"": ""17:00"", ""close"": ""23:30"" / ""weekday"": 5, ""open"": ""17:00"", ""close"": ""23:30"" / ""weekday"": 6, ""open"": ""17:00"", ""close"": ""23:30"""
16876291201495371788,延三夜市,25.0633642,121.5111796,大同區延平北路三段,103,大同區,4.1,北部,臺北市,https://maps.google.com/?cid=16876291201495371788,25.0647122802915,121.5125073302915,25.0620143197085,121.5098093697085,"""weekday"": 0, ""open"": ""18:00"", ""close"": ""00:00"" / ""weekday"": 1, ""open"": ""18:00"", ""close"": ""00:00"" / ""weekday"": 2, ""open"": ""18:00"", ""close"": ""00:00"" / ""weekday"": 3, ""open"": ""18:00"", ""close"": ""00:00"" / ""weekday"": 4, ""open"": ""18:00"", ""close"": ""00:00"" / ""weekday"": 5, ""open"": ""18:00"", ""close"": ""00:00"" / ""weekday"": 6, ""open"": ""18:00"", ""close"": ""00:00"""
15903787999187546166,晴光市場,25.0643542,121.5225939,中山區台2甲線晴光市場,104,中山區,4.0,北部,臺北市,https://maps.google.com/?cid=15903787999187546166,25.0656697802915,121.5238541802915,25.0629718197085,121.5211562197085,"""weekday"": 0, ""open"": ""09:00"", ""close"": ""21:00"" / ""weekday"": 1, ""open"": ""09:00"", ""close"": ""21:00"" / ""weekday"": 2, ""open"": ""09:00"", ""close"": ""21:00"" / ""weekday"": 3, ""open"": ""09:00"", ""close"": ""21:00"" / ""weekday"": 4, ""open"": ""09:00"", ""close"": ""21:00"" / ""weekday"": 5, ""open"": ""09:00"", ""close"": ""21:00"" / ""weekday"": 6, ""open"": ""09:00"", ""close"": ""21:00"""
11547343787286946074,遼寧街夜市,25.0488683,121.5421769,中山區遼寧街,104,中山區,3.9,北部,臺北市,https://maps.google.com/?cid=11547343787286946074,25.0502184302915,121.5434987302915,25.04752046970849,121.5408007697085,"""weekday"": 0, ""open"": ""18:00"", ""close"": ""00:00"" / ""weekday"": 1, ""open"": ""18:00"", ""close"": ""00:00"" / ""weekday"": 2, ""open"": ""18:00"", ""close"": ""00:00"" / ""weekday"": 3, ""open"": ""18:00"", ""close"": ""00:00"" / ""weekday"": 4, ""open"": ""18:00"", ""close"": ""00:00"" / ""weekday"": 5, ""open"": ""18:00"", ""close"": ""00:00"" / ""weekday"": 6, ""open"": ""18:00"", ""close"": ""00:00"""
8282719880989632211,雙城街夜市,25.0644857,121.524335,中山區雙城街,104,中山區,4.1,北部,臺北市,https://maps.google.com/?cid=8282719880989632211,25.06581458029151,121.5256878302915,25.0631166197085,121.5229898697085,"""weekday"": 0, ""open"": ""08:00"", ""close"": ""00:00"" / ""weekday"": 1, ""open"": ""08:00"", ""close"": ""00:00"" / ""weekday"": 2, ""open"": ""08:00"", ""close"": ""00:00"" / ""weekday"": 3, ""open"": ""08:00"", ""close"": ""00:00"" / ""weekday"": 4, ""open"": ""08:00"", ""close"": ""00:00"" / ""weekday"": 5, ""open"": ""08:00"", ""close"": ""00:00"" / ""weekday"": 6, ""open"": ""08:00"", ""close"": ""00:00"""
4441131439049537270,饒河街觀光夜市,25.0508854,121.5774891,松山區饒河街,105,松山區,4.3,北部,臺北市,https://maps.google.com/?cid=4441131439049537270,25.0522323802915,121.5788684302915,25.04953441970849,121.5761704697085,"""weekday"": 0, ""open"": ""17:00"", ""close"": ""00:00"" / ""weekday"": 1, ""open"": ""17:00"", ""close"": ""00:00"" / ""weekday"": 2, ""open"": ""17:00"", ""close"": ""00:00"" / ""weekday"": 3, ""open"": ""17:00"", ""close"": ""00:00"" / ""weekday"": 4, ""open"": ""17:00"", ""close"": ""00:00"" / ""weekday"": 5, ""open"": ""17:00"", ""close"": ""00:00"" / ""weekday"": 6, ""open"": ""17:00"", ""close"": ""00:00"""
10908096891347706897,師大夜市,25.0245042,121.5293123,大安區師大路39巷,106,大安區,4.0,北部,臺北市,https://maps.google.com/?cid=10908096891347706897,25.0259129802915,121.5305877802915,25.02321501970849,121.5278898197085,"""weekday"": 0, ""open"": ""16:00"", ""close"": ""00:00"" / ""weekday"": 1, ""open"": ""16:00"", ""close"": ""23:00"" / ""weekday"": 2, ""open"": ""16:00"", ""close"": ""23:00"" / ""weekday"": 3, ""open"": ""16:00"", ""close"": ""23:00"" / ""weekday"": 4, ""open"": ""16:00"", ""close"": ""23:00"" / ""weekday"": 5, ""open"": ""16:00"", ""close"": ""23:00"" / ""weekday"": 6, ""open"": ""16:00"", ""close"": ""00:00"""
13429027959952006446,臨江街觀光夜市,25.0301412,121.5542672,大安區臨江街,106,大安區,4.2,北部,臺北市,https://maps.google.com/?cid=13429027959952006446,25.0315280802915,121.5556274802915,25.02883011970849,121.5529295197085,"""weekday"": 0, ""open"": ""18:00"", ""close"": ""00:00"" / ""weekday"": 1, ""open"": ""18:00"", ""close"": ""00:00"" / ""weekday"": 2, ""open"": ""18:00"", ""close"": ""00:00"" / ""weekday"": 3, ""open"": ""18:00"", ""close"": ""00:00"" / ""weekday"": 4, ""open"": ""18:00"", ""close"": ""00:00"" / ""weekday"": 5, ""open"": ""18:00"", ""close"": ""00:00"" / ""weekday"": 6, ""open"": ""18:00"", ""close"": ""00:00"""
8294588404559486686,萬通耳鼻喉科診所,25.0433379,121.5538958,大安區延吉街64之2號,106,大安區,4.2,北部,臺北市,https://maps.google.com/?cid=8294588404559486686,25.0447204302915,121.5552863302915,25.0420224697085,121.5525883697085,"""weekday"": 0, ""open"": ""09:00"", ""close"": ""12:00"" / ""weekday"": 1, ""open"": ""18:30"", ""close"": ""21:30"" / ""weekday"": 2, ""open"": ""18:30"", ""close"": ""21:30"" / ""weekday"": 3, ""open"": ""18:30"", ""close"": ""21:30"" / ""weekday"": 4, ""open"": ""18:30"", ""close"": ""21:30"" / ""weekday"": 5, ""open"": ""18:30"", ""close"": ""21:30"" / ""weekday"": 6, ""open"": ""09:00"", ""close"": ""12:00"""
10982257146303623860,龍泉市場,25.0212507,121.5284473,大安區師大路92巷15號,106,大安區,3.9,北部,臺北市,https://maps.google.com/?cid=10982257146303623860,25.0226063802915,121.5297706302915,25.01990841970849,121.5270726697085,"""weekday"": 0, ""open"": ""07:00"", ""close"": ""13:00"" / ""weekday"": 2, ""open"": ""07:00"", ""close"": ""13:00"" / ""weekday"": 3, ""open"": ""07:00"", ""close"": ""13:00"" / ""weekday"": 4, ""open"": ""07:00"", ""close"": ""13:00"" / ""weekday"": 5, ""open"": ""07:00"", ""close"": ""13:00"" / ""weekday"": 6, ""open"": ""07:00"", ""close"": ""13:00"""
10059248357733763361,廣州街觀光夜市,25.036731,121.4976133,萬華區廣州街,108,萬華區,4.1,北部,臺北市,https://maps.google.com/?cid=10059248357733763361,25.0380934802915,121.4989635302915,25.0353955197085,121.4962655697085,"""weekday"": 0, ""open"": ""16:00"", ""close"": ""00:00"" / ""weekday"": 1, ""open"": ""16:00"", ""close"": ""00:00"" / ""weekday"": 2, ""open"": ""16:00"", ""close"": ""00:00"" / ""weekday"": 3, ""open"": ""16:00"", ""close"": ""00:00"" / ""weekday"": 4, ""open"": ""16:00"", ""close"": ""00:00"" / ""weekday"": 5, ""open"": ""16:00"", ""close"": ""00:00"" / ""weekday"": 6, ""open"": ""16:00"", ""close"": ""00:00"""
14492878547037578837,復興口商圈,25.02645,121.4946389,萬華區東園街28巷46號,108,萬華區,4.2,北部,臺北市,https://maps.google.com/?cid=14492878547037578837,25.0277662802915,121.4960224302915,25.0250683197085,121.4933244697085,"""weekday"": 0, ""open"": ""05:00"", ""close"": ""11:00"" / ""weekday"": 1, ""open"": ""05:00"", ""close"": ""23:00"" / ""weekday"": 2, ""open"": ""05:00"", ""close"": ""23:00"" / ""weekday"": 3, ""open"": ""05:00"", ""close"": ""23:00"" / ""weekday"": 4, ""open"": ""05:00"", ""close"": ""23:00"" / ""weekday"": 5, ""open"": ""05:00"", ""close"": ""23:00"" / ""weekday"": 6, ""open"": ""05:00"", ""close"": ""23:00"""
7705122594713959225,臺北華西街夜市,25.0385988,121.4984426,萬華區華西街,108,萬華區,3.9,北部,臺北市,https://maps.google.com/?cid=7705122594713959225,25.0399005302915,121.4997565302915,25.0372025697085,121.4970585697085,"""weekday"": 0, ""open"": ""16:00"", ""close"": ""00:00"" / ""weekday"": 1, ""open"": ""16:00"", ""close"": ""00:00"" / ""weekday"": 2, ""open"": ""16:00"", ""close"": ""00:00"" / ""weekday"": 3, ""open"": ""16:00"", ""close"": ""00:00"" / ""weekday"": 4, ""open"": ""16:00"", ""close"": ""00:00"" / ""weekday"": 5, ""open"": ""16:00"", ""close"": ""00:00"" / ""weekday"": 6, ""open"": ""16:00"", ""close"": ""00:00"""
16267773970038384168,西門夜市,25.0452425,121.5064943,萬華區西寧南路36號1,108,萬華區,4.4,北部,臺北市,https://maps.google.com/?cid=16267773970038384168,25.0465796302915,121.5078915802915,25.0438816697085,121.5051936197085,"""weekday"": 0, ""open"": ""16:00"", ""close"": ""22:00"" / ""weekday"": 1, ""open"": ""16:00"", ""close"": ""22:00"" / ""weekday"": 2, ""open"": ""16:00"", ""close"": ""22:00"" / ""weekday"": 3, ""open"": ""16:00"", ""close"": ""22:00"" / ""weekday"": 4, ""open"": ""16:00"", ""close"": ""22:00"" / ""weekday"": 5, ""open"": ""16:00"", ""close"": ""22:00"" / ""weekday"": 6, ""open"": ""16:00"", ""close"": ""22:00"""
18144320277693807857,林口街夜市,25.0378954,121.5793422,信義區林口街40-44號,110,信義區,3.9,北部,臺北市,https://maps.google.com/?cid=18144320277693807857,25.0392396302915,121.5807269802915,25.0365416697085,121.5780290197085,"""weekday"": 0, ""open"": ""07:00"", ""close"": ""13:00"" / ""weekday"": 1, ""open"": ""08:30"", ""close"": ""11:30"" / ""weekday"": 2, ""open"": ""07:00"", ""close"": ""13:00"" / ""weekday"": 3, ""open"": ""07:00"", ""close"": ""13:00"" / ""weekday"": 4, ""open"": ""07:00"", ""close"": ""13:00"" / ""weekday"": 5, ""open"": ""07:00"", ""close"": ""13:00"" / ""weekday"": 6, ""open"": ""07:00"", ""close"": ""13:00"""
16700031033317783849,士林夜市,25.0884972,121.5243504,士林區基河路101號,111,士林區,4.1,北部,臺北市,https://maps.google.com/?cid=16700031033317783849,25.0894734302915,121.5255276302915,25.0867754697085,121.5228296697085,"""weekday"": 0, ""open"": ""16:00"", ""close"": ""00:00"" / ""weekday"": 1, ""open"": ""16:00"", ""close"": ""00:00"" / ""weekday"": 2, ""open"": ""16:00"", ""close"": ""00:00"" / ""weekday"": 3, ""open"": ""16:00"", ""close"": ""00:00"" / ""weekday"": 4, ""open"": ""16:00"", ""close"": ""00:00"" / ""weekday"": 5, ""open"": ""16:00"", ""close"": ""00:00"" / ""weekday"": 6, ""open"": ""16:00"", ""close"": ""00:00"""
13641339348822393855,石牌商城夜市,25.116731,121.5163978,北投區裕民一路30號,112,北投區,4.1,北部,臺北市,https://maps.google.com/?cid=13641339348822393855,25.1182323802915,121.5177326302915,25.1155344197085,121.5150346697085,"""weekday"": 0, ""open"": ""16:00"", ""close"": ""01:00"" / ""weekday"": 1, ""open"": ""16:00"", ""close"": ""01:00"" / ""weekday"": 2, ""open"": ""16:00"", ""close"": ""01:00"" / ""weekday"": 3, ""open"": ""16:00"", ""close"": ""01:00"" / ""weekday"": 4, ""open"": ""16:00"", ""close"": ""01:00"" / ""weekday"": 5, ""open"": ""16:00"", ""close"": ""01:00"" / ""weekday"": 6, ""open"": ""16:00"", ""close"": ""01:00"""
6095200362319727025,737巷美食街,25.079738,121.5786619,內湖區內湖路一段737巷,114,內湖區,4.1,北部,臺北市,https://maps.google.com/?cid=6095200362319727025,25.0811010302915,121.5799755302915,25.0784030697085,121.5772775697085,"""weekday"": 0, ""open"": ""16:00"", ""close"": ""23:00"" / ""weekday"": 1, ""open"": ""16:00"", ""close"": ""23:00"" / ""weekday"": 2, ""open"": ""16:00"", ""close"": ""23:00"" / ""weekday"": 3, ""open"": ""16:00"", ""close"": ""23:00"" / ""weekday"": 4, ""open"": ""16:00"", ""close"": ""23:00"" / ""weekday"": 5, ""open"": ""16:00"", ""close"": ""23:00"" / ""weekday"": 6, ""open"": ""16:00"", ""close"": ""23:00"""
4639479911044240009,景美夜市,24.9906733,121.5417191,文山區景美街,116,文山區,4.1,北部,臺北市,https://maps.google.com/?cid=4639479911044240009,24.9920241302915,121.5430508802915,24.9893261697085,121.5403529197085,"""weekday"": 0, ""open"": ""17:00"", ""close"": ""00:00"" / ""weekday"": 1, ""open"": ""17:00"", ""close"": ""00:00"" / ""weekday"": 2, ""open"": ""17:00"", ""close"": ""00:00"" / ""weekday"": 3, ""open"": ""17:00"", ""close"": ""00:00"" / ""weekday"": 4, ""open"": ""17:00"", ""close"": ""00:00"" / ""weekday"": 5, ""open"": ""17:00"", ""close"": ""00:00"" / ""weekday"": 6, ""open"": ""17:00"", ""close"": ""00:00"""
3299392847797445675,仁愛市場,25.128054,121.741071,仁愛區愛三路21號,200,仁愛區,4.1,北部,基隆市,https://maps.google.com/?cid=3299392847797445675,25.1294341802915,121.7425747302915,25.1267362197085,121.7398767697085,"""weekday"": 0, ""open"": ""08:00"", ""close"": ""17:00"" / ""weekday"": 1, ""open"": ""08:00"", ""close"": ""17:00"" / ""weekday"": 2, ""open"": ""08:00"", ""close"": ""17:00"" / ""weekday"": 3, ""open"": ""08:00"", ""close"": ""17:00"" / ""weekday"": 4, ""open"": ""08:00"", ""close"": ""17:00"" / ""weekday"": 5, ""open"": ""08:00"", ""close"": ""17:00"" / ""weekday"": 6, ""open"": ""08:00"", ""close"": ""17:00"""
2127068001886947614,基隆廟口夜市,25.128445,121.7431519,仁愛區玉田里仁三路,200,仁愛區,4.2,北部,基隆市,https://maps.google.com/?cid=2127068001886947614,25.1298148302915,121.7444816302915,25.1271168697085,121.7417836697085,"""weekday"": 0, ""open"": ""00:00"", ""close"": ""23:59"" / ""weekday"": 1, ""open"": ""00:00"", ""close"": ""23:59"" / ""weekday"": 2, ""open"": ""00:00"", ""close"": ""23:59"" / ""weekday"": 3, ""open"": ""00:00"", ""close"": ""23:59"" / ""weekday"": 4, ""open"": ""00:00"", ""close"": ""23:59"" / ""weekday"": 5, ""open"": ""00:00"", ""close"": ""23:59"" / ""weekday"": 6, ""open"": ""00:00"", ""close"": ""23:59"""
3630095982193413361,八斗子假日夜市,25.1426177,121.7899976,中正區北寧路262號,202,中正區,3.9,北部,基隆市,https://maps.google.com/?cid=3630095982193413361,25.1437487302915,121.7913688302915,25.1410507697085,121.7886708697085,"""weekday"": 0, ""open"": ""17:00"", ""close"": ""00:00"" / ""weekday"": 6, ""open"": ""17:00"", ""close"": ""00:00"""
3332970943827057473,七堵夜市,25.0977747,121.7143498,七堵區明德一路,206,七堵區,4.0,北部,基隆市,https://maps.google.com/?cid=3332970943827057473,25.0991236802915,121.7156987802915,25.0964257197085,121.7130008197085,"""weekday"": 0, ""open"": ""10:30"", ""close"": ""23:30"" / ""weekday"": 1, ""open"": ""10:30"", ""close"": ""23:30"" / ""weekday"": 2, ""open"": ""10:30"", ""close"": ""23:30"" / ""weekday"": 3, ""open"": ""10:30"", ""close"": ""23:30"" / ""weekday"": 4, ""open"": ""10:30"", ""close"": ""23:30"" / ""weekday"": 5, ""open"": ""10:30"", ""close"": ""23:30"" / ""weekday"": 6, ""open"": ""10:30"", ""close"": ""23:30"""
9726491651235526071,金山小夜市,25.225599,121.632684,金山區美田里,208,金山區,3.8,北部,新北市,https://maps.google.com/?cid=9726491651235526071,25.2269439802915,121.6341299802915,25.2242460197085,121.6314320197085,"""weekday"": 2, ""open"": ""16:00"", ""close"": ""00:00"" / ""weekday"": 6, ""open"": ""16:00"", ""close"": ""00:00"""
17161307896491607329,板橋湳雅夜市,25.0057165,121.4554698,板橋區南雅東路87號,220,板橋區,4.2,北部,新北市,https://maps.google.com/?cid=17161307896491607329,25.0069212802915,121.4567851302915,25.0042233197085,121.4540871697085,"""weekday"": 0, ""open"": ""17:00"", ""close"": ""00:00"" / ""weekday"": 1, ""open"": ""17:00"", ""close"": ""00:00"" / ""weekday"": 2, ""open"": ""17:00"", ""close"": ""00:00"" / ""weekday"": 3, ""open"": ""17:00"", ""close"": ""00:00"" / ""weekday"": 4, ""open"": ""17:00"", ""close"": ""00:00"" / ""weekday"": 5, ""open"": ""17:00"", ""close"": ""00:00"" / ""weekday"": 6, ""open"": ""17:00"", ""close"": ""00:00"""
14206048452237066627,汐止弘道街夜市,25.0486052,121.6169032,汐止區弘道街10號,221,汐止區,3.9,北部,新北市,https://maps.google.com/?cid=14206048452237066627,25.0499928802915,121.6182525802915,25.0472949197085,121.6155546197085,"""weekday"": 2, ""open"": ""17:00"", ""close"": ""23:00"" / ""weekday"": 5, ""open"": ""17:00"", ""close"": ""23:00"""
10101964674660893780,長興街福德祠夜市,25.0796737,121.6709747,汐止區長興街一段,221,汐止區,4.3,北部,新北市,https://maps.google.com/?cid=10101964674660893780,25.0810956302915,121.6722645302915,25.0783976697085,121.6695665697085,"""weekday"": 4, ""open"": ""17:00"", ""close"": ""21:00"""
2990502102938633821,深坑慈聖夜市,25.0049639,121.6237351,深坑區北深路一段,222,深坑區,3.8,北部,新北市,https://maps.google.com/?cid=2990502102938633821,25.0065186302915,121.6249662802915,25.0038206697085,121.6222683197085,"""weekday"": 2, ""open"": ""18:00"", ""close"": ""23:00"" / ""weekday"": 5, ""open"": ""18:00"", ""close"": ""23:00"""
17410125540965227079,四腳亭吉安宮夜市,25.1030895,121.7637324,瑞芳區瑞竹路91號,224,瑞芳區,3.9,北部,新北市,https://maps.google.com/?cid=17410125540965227079,25.1044066302915,121.7652037802915,25.1017086697085,121.7625058197085,"""weekday"": 1, ""open"": ""17:00"", ""close"": ""23:00"" / ""weekday"": 4, ""open"": ""17:00"", ""close"": ""23:00"""
16875985946716127937,貢寮澳底夜市,25.0546286,121.9266839,貢寮區新港街26巷,228,貢寮區,4.1,北部,新北市,https://maps.google.com/?cid=16875985946716127937,25.0559884802915,121.9280405302915,25.0532905197085,121.9253425697085,"""weekday"": 1, ""open"": ""17:00"", ""close"": ""21:30"" / ""weekday"": 5, ""open"": ""17:00"", ""close"": ""21:30"""
9741617305667603567,樂華夜市,25.0084156,121.5117271,永和區永平路,234,永和區,4.3,北部,新北市,https://maps.google.com/?cid=9741617305667603567,25.0097937802915,121.5130757302915,25.0070958197085,121.5103777697085,"""weekday"": 0, ""open"": ""16:00"", ""close"": ""00:00"" / ""weekday"": 1, ""open"": ""16:00"", ""close"": ""00:00"" / ""weekday"": 2, ""open"": ""16:00"", ""close"": ""00:00"" / ""weekday"": 3, ""open"": ""16:00"", ""close"": ""00:00"" / ""weekday"": 4, ""open"": ""16:00"", ""close"": ""00:00"" / ""weekday"": 5, ""open"": ""16:00"", ""close"": ""00:00"" / ""weekday"": 6, ""open"": ""16:00"", ""close"": ""00:00"""
15897605706134916229,興南夜市,24.9899688,121.5107306,中和區信義街,235,中和區,3.7,北部,新北市,https://maps.google.com/?cid=15897605706134916229,24.9913312802915,121.5121118302915,24.98863331970849,121.5094138697085,"""weekday"": 0, ""open"": ""17:30"", ""close"": ""00:00"" / ""weekday"": 1, ""open"": ""17:30"", ""close"": ""00:00"" / ""weekday"": 2, ""open"": ""17:30"", ""close"": ""00:00"" / ""weekday"": 3, ""open"": ""17:30"", ""close"": ""00:00"" / ""weekday"": 4, ""open"": ""17:30"", ""close"": ""00:00"" / ""weekday"": 5, ""open"": ""17:30"", ""close"": ""00:00"" / ""weekday"": 6, ""open"": ""17:30"", ""close"": ""00:00"""
315384897449175190,樹林 興仁花園夜市,25.0031642,121.4154278,樹林區保安街二段70號,238,樹林區,4.2,北部,新北市,https://maps.google.com/?cid=315384897449175190,25.0046939302915,121.4166433802915,25.0019959697085,121.4139454197085,"""weekday"": 0, ""open"": ""17:00"", ""close"": ""00:00"" / ""weekday"": 5, ""open"": ""17:00"", ""close"": ""00:00"" / ""weekday"": 6, ""open"": ""17:00"", ""close"": ""00:00"""
4843814117794604251,鳳鳴龍鳳夜市,24.9731672,121.3330269,鶯歌區鳳三路157號,239,鶯歌區,3.5,北部,新北市,https://maps.google.com/?cid=4843814117794604251,24.9747460802915,121.3344038802915,24.9720481197085,121.3317059197085,"""weekday"": 0, ""open"": ""17:00"", ""close"": ""23:00"" / ""weekday"": 2, ""open"": ""17:00"", ""close"": ""23:00"" / ""weekday"": 5, ""open"": ""17:00"", ""close"": ""23:00"" / ""weekday"": 6, ""open"": ""17:00"", ""close"": ""23:00"""
8369244066455810295,三和夜市,25.0635655,121.5011253,三重區中央北路,241,三重區,4.2,北部,新北市,https://maps.google.com/?cid=8369244066455810295,25.0656497302915,121.5021791802915,25.0629517697085,121.4994812197085,"""weekday"": 0, ""open"": ""17:00"", ""close"": ""00:00"" / ""weekday"": 1, ""open"": ""17:00"", ""close"": ""00:00"" / ""weekday"": 2, ""open"": ""17:00"", ""close"": ""00:00"" / ""weekday"": 3, ""open"": ""17:00"", ""close"": ""00:00"" / ""weekday"": 4, ""open"": ""17:00"", ""close"": ""00:00"" / ""weekday"": 5, ""open"": ""17:00"", ""close"": ""00:00"" / ""weekday"": 6, ""open"": ""17:00"", ""close"": ""00:00"""
2558323868178486989,五股工業區夜市,25.0662686,121.4598406,新莊區,242,新莊區,3.6,北部,新北市,https://maps.google.com/?cid=2558323868178486989,25.0676075802915,121.4611801302915,25.0649096197085,121.4584821697085,"""weekday"": 2, ""open"": ""16:30"", ""close"": ""22:00"""
12785050465535870459,新莊四維市場,25.02244,121.422819,新莊區四維路,242,新莊區,4.1,北部,新北市,https://maps.google.com/?cid=12785050465535870459,25.0237804802915,121.4241884802915,25.0210825197085,121.4214905197085,"""weekday"": 0, ""open"": ""06:10"", ""close"": ""00:00"" / ""weekday"": 1, ""open"": ""06:10"", ""close"": ""00:00"" / ""weekday"": 2, ""open"": ""06:10"", ""close"": ""00:00"" / ""weekday"": 3, ""open"": ""06:10"", ""close"": ""00:00"" / ""weekday"": 4, ""open"": ""06:10"", ""close"": ""00:00"" / ""weekday"": 5, ""open"": ""06:10"", ""close"": ""00:00"" / ""weekday"": 6, ""open"": ""06:10"", ""close"": ""00:00"""
11981159352627822179,新莊廟街夜市,25.0336951,121.4509529,新莊區新莊路,242,新莊區,3.8,北部,新北市,https://maps.google.com/?cid=11981159352627822179,25.0351972802915,121.4533150802915,25.0324993197085,121.4506171197085,"""weekday"": 0, ""open"": ""16:00"", ""close"": ""00:00"" / ""weekday"": 1, ""open"": ""16:00"", ""close"": ""00:00"" / ""weekday"": 2, ""open"": ""16:00"", ""close"": ""00:00"" / ""weekday"": 3, ""open"": ""16:00"", ""close"": ""00:00"" / ""weekday"": 4, ""open"": ""16:00"", ""close"": ""00:00"" / ""weekday"": 5, ""open"": ""16:00"", ""close"": ""00:00"" / ""weekday"": 6, ""open"": ""16:00"", ""close"": ""00:00"""
8581983021817447446,西盛夜市,25.0167946,121.4280368,新莊區西盛街248號,242,新莊區,4.1,北部,新北市,https://maps.google.com/?cid=8581983021817447446,25.0181423302915,121.4294236302915,25.0154443697085,121.4267256697085,"""weekday"": 5, ""open"": ""17:00"", ""close"": ""23:00"""
2260384658498906113,林口夜市,25.0793777,121.3873684,林口區佳林路101巷,244,林口區,4.1,北部,新北市,https://maps.google.com/?cid=2260384658498906113,25.0806863802915,121.3887299802915,25.07798841970849,121.3860320197085,"""weekday"": 0, ""open"": ""17:00"", ""close"": ""23:30"" / ""weekday"": 3, ""open"": ""17:00"", ""close"": ""23:30"""
10519671281262910078,蘆洲廟口夜市,25.0832198,121.4716867,蘆洲區得勝街96號,247,蘆洲區,4.2,北部,新北市,https://maps.google.com/?cid=10519671281262910078,25.08459318029151,121.4730245802915,25.0818952197085,121.4703266197085,"""weekday"": 0, ""open"": ""17:00"", ""close"": ""23:00"" / ""weekday"": 1, ""open"": ""17:00"", ""close"": ""23:00"" / ""weekday"": 2, ""open"": ""17:00"", ""close"": ""23:00"" / ""weekday"": 3, ""open"": ""17:00"", ""close"": ""23:00"" / ""weekday"": 4, ""open"": ""17:00"", ""close"": ""23:00"" / ""weekday"": 5, ""open"": ""17:00"", ""close"": ""23:00"" / ""weekday"": 6, ""open"": ""17:00"", ""close"": ""23:00"""
12604658613465132265,五股御史路夜市,25.0899605,121.4423913,五股區御史路,248,五股區,3.1,北部,新北市,https://maps.google.com/?cid=12604658613465132265,25.0912976802915,121.4437172302915,25.0885997197085,121.4410192697085,"""weekday"": 6, ""open"": ""17:30"", ""close"": ""23:00"""
10172828114979870330,八里廖添丁廟,25.1436734,121.3965608,八里區中華路三段2號,249,八里區,4.4,北部,新北市,https://maps.google.com/?cid=10172828114979870330,25.1449096802915,121.3979978302915,25.1422117197085,121.3952998697085,"""weekday"": 0, ""open"": ""05:30"", ""close"": ""21:00"" / ""weekday"": 1, ""open"": ""05:30"", ""close"": ""20:00"" / ""weekday"": 2, ""open"": ""05:30"", ""close"": ""21:00"" / ""weekday"": 3, ""open"": ""05:30"", ""close"": ""20:00"" / ""weekday"": 4, ""open"": ""05:30"", ""close"": ""20:00"" / ""weekday"": 5, ""open"": ""05:30"", ""close"": ""20:00"" / ""weekday"": 6, ""open"": ""05:30"", ""close"": ""21:00"""
13116393566664218619,沙崙夜市,25.1853274,121.4241094,淡水區沙崙路201巷26號,251,淡水區,4.1,北部,新北市,https://maps.google.com/?cid=13116393566664218619,25.1866447802915,121.4251614802915,25.1839468197085,121.4224635197085,"""weekday"": 0, ""open"": ""17:00"", ""close"": ""23:00"" / ""weekday"": 5, ""open"": ""17:00"", ""close"": ""23:00"""
10625206978095951156,淡水英專夜市,25.1690096,121.4453441,淡水區英專路,251,淡水區,4.0,北部,新北市,https://maps.google.com/?cid=10625206978095951156,25.1703623802915,121.4466554802915,25.1676644197085,121.4439575197085,"""weekday"": 0, ""open"": ""09:00"", ""close"": ""22:00"" / ""weekday"": 1, ""open"": ""09:00"", ""close"": ""22:00"" / ""weekday"": 2, ""open"": ""09:00"", ""close"": ""22:00"" / ""weekday"": 3, ""open"": ""09:00"", ""close"": ""22:00"" / ""weekday"": 4, ""open"": ""09:00"", ""close"": ""22:00"" / ""weekday"": 5, ""open"": ""09:00"", ""close"": ""22:00"" / ""weekday"": 6, ""open"": ""09:00"", ""close"": ""22:00"""
13046221165401232306,集應廟夜市,25.2043666,121.4495364,淡水區淡金路三段200號,251,淡水區,3.8,北部,新北市,https://maps.google.com/?cid=13046221165401232306,25.2056290302915,121.4508794302915,25.2029310697085,121.4481814697085,"""weekday"": 0, ""open"": ""16:00"", ""close"": ""22:00"" / ""weekday"": 3, ""open"": ""16:00"", ""close"": ""22:00"""
8377719940460775109,三芝夜市,25.2600352,121.493602,三芝區福成橋頭,252,三芝區,3.1,北部,新北市,https://maps.google.com/?cid=8377719940460775109,25.2614342302915,121.4949483302915,25.2587362697085,121.4922503697085,"""weekday"": 6, ""open"": ""17:00"", ""close"": ""22:00"""
1988434154984755463,宜蘭東門觀光夜市,24.7581411,121.7584576,宜蘭市聖後街,260,宜蘭市,4.0,東部,宜蘭縣,https://maps.google.com/?cid=1988434154984755463,24.7595020802915,121.7598018802915,24.75680411970849,121.7571039197085,"""weekday"": 0, ""open"": ""17:00"", ""close"": ""00:00"" / ""weekday"": 1, ""open"": ""17:00"", ""close"": ""00:00"" / ""weekday"": 2, ""open"": ""17:00"", ""close"": ""00:00"" / ""weekday"": 3, ""open"": ""17:00"", ""close"": ""00:00"" / ""weekday"": 4, ""open"": ""17:00"", ""close"": ""00:00"" / ""weekday"": 5, ""open"": ""17:00"", ""close"": ""00:00"" / ""weekday"": 6, ""open"": ""17:00"", ""close"": ""00:00"""
4192501963770083061,頭城吉祥夜市,24.8560675,121.8215068,頭城鎮吉祥路5號,261,頭城鎮,4.3,東部,宜蘭縣,https://maps.google.com/?cid=4192501963770083061,24.8574386302915,121.8228827802915,24.8547406697085,121.8201848197085,"""weekday"": 5, ""open"": ""17:30"", ""close"": ""22:30"""
7702293522930146680,礁溪溫泉夜市,24.8246874,121.75926,礁溪鄉大忠路,262,礁溪鄉,4.1,東部,宜蘭縣,https://maps.google.com/?cid=7702293522930146680,24.8260510802915,121.7606194802915,24.8233531197085,121.7579215197085,"""weekday"": 0, ""open"": ""17:00"", ""close"": ""22:00"""
17595689929344595795,楊梅觀光夜市,24.9107203,121.161677,楊梅區金山街263號,263,壯圍鄉,3.9,北部,桃園市,https://maps.google.com/?cid=17595689929344595795,24.9120975802915,121.1629939302915,24.9093996197085,121.1602959697085,"""weekday"": 5, ""open"": ""17:00"", ""close"": ""23:00"""
4470704957197933691,員山夜市,24.745015,121.7229172,員山鄉文化路,264,員山鄉,4.2,東部,宜蘭縣,https://maps.google.com/?cid=4470704957197933691,24.7463783802915,121.7242476302915,24.7436804197085,121.7215496697085,"""weekday"": 4, ""open"": ""17:30"", ""close"": ""22:30"""
3016587548477206379,羅東觀光夜市,24.6770442,121.7693122,羅東鎮興東路與民權路口,265,羅東鎮,4.2,東部,宜蘭縣,https://maps.google.com/?cid=3016587548477206379,24.6784078802915,121.7706659802915,24.6757099197085,121.7679680197085,"""weekday"": 0, ""open"": ""15:00"", ""close"": ""00:00"" / ""weekday"": 1, ""open"": ""15:00"", ""close"": ""00:00"" / ""weekday"": 2, ""open"": ""15:00"", ""close"": ""00:00"" / ""weekday"": 3, ""open"": ""15:00"", ""close"": ""00:00"" / ""weekday"": 4, ""open"": ""15:00"", ""close"": ""00:00"" / ""weekday"": 5, ""open"": ""15:00"", ""close"": ""00:00"" / ""weekday"": 6, ""open"": ""15:00"", ""close"": ""00:00"""
16638962603329136324,宜蘭流動夜市,24.6692328,121.6533414,三星鄉月眉街,266,三星鄉,3.9,東部,宜蘭縣,https://maps.google.com/?cid=16638962603329136324,24.6705886302915,121.6547283302915,24.6678906697085,121.6520303697085,"""weekday"": 5, ""open"": ""18:00"", ""close"": ""22:00"""
3684430380991296940,冬山夜市,24.6360135,121.79214,冬山鄉中華路21號,269,冬山鄉,4.3,東部,宜蘭縣,https://maps.google.com/?cid=3684430380991296940,24.6373624802915,121.7934889802915,24.63466451970849,121.7907910197085,"""weekday"": 6, ""open"": ""18:00"", ""close"": ""22:00"""
2957138131130013206,清溝夜市,24.66399,121.761295,冬山鄉清溝路153號,269,冬山鄉,4.4,東部,宜蘭縣,https://maps.google.com/?cid=2957138131130013206,24.6653914302915,121.7624767302915,24.6626934697085,121.7597787697085,"""weekday"": 3, ""open"": ""18:00"", ""close"": ""23:00"""
9587117745973505350,南方澳夜市,24.5844397,121.8650256,蘇澳鎮南安路150號,270,蘇澳鎮,3.6,東部,宜蘭縣,https://maps.google.com/?cid=9587117745973505350,24.5859144802915,121.8662407802915,24.58321651970849,121.8635428197085,"""weekday"": 1, ""open"": ""17:00"", ""close"": ""21:00"""
2906415595594698923,馬賽夜市,24.6173286,121.8383557,蘇澳鎮和平路,270,蘇澳鎮,3.8,東部,宜蘭縣,https://maps.google.com/?cid=2906415595594698923,24.6186948302915,121.8397215802915,24.6159968697085,121.8370236197085,"""weekday"": 6, ""open"": ""18:30"", ""close"": ""21:30"""
8499032764094040845,中正台商圈,24.8032411,120.9685613,東區文昌街40號,300,香山區,3.7,北部,新竹市,https://maps.google.com/?cid=8499032764094040845,24.8045510802915,120.9699382802915,24.8018531197085,120.9672403197085,"""weekday"": 0, ""open"": ""10:00"", ""close"": ""22:00"" / ""weekday"": 1, ""open"": ""10:00"", ""close"": ""22:00"" / ""weekday"": 2, ""open"": ""10:00"", ""close"": ""22:00"" / ""weekday"": 3, ""open"": ""10:00"", ""close"": ""22:00"" / ""weekday"": 4, ""open"": ""10:00"", ""close"": ""22:00"" / ""weekday"": 5, ""open"": ""10:00"", ""close"": ""22:00"" / ""weekday"": 6, ""open"": ""10:00"", ""close"": ""22:00"""
866562965463297741,新竹市城隍廟夜市,24.804381,120.9656054,北區中山路75號,300,香山區,4.3,北部,新竹市,https://maps.google.com/?cid=866562965463297741,24.8058111802915,120.9668332302915,24.8031132197085,120.9641352697085,"""weekday"": 0, ""open"": ""11:00"", ""close"": ""21:00"" / ""weekday"": 1, ""open"": ""11:00"", ""close"": ""21:00"" / ""weekday"": 2, ""open"": ""11:00"", ""close"": ""21:00"" / ""weekday"": 3, ""open"": ""11:00"", ""close"": ""21:00"" / ""weekday"": 4, ""open"": ""11:00"", ""close"": ""21:00"" / ""weekday"": 5, ""open"": ""11:00"", ""close"": ""21:00"" / ""weekday"": 6, ""open"": ""11:00"", ""close"": ""21:00"""
14738182103599959014,新竹後站夜市,24.8009599,120.9742228,東區公竹路,300,香山區,4.3,北部,新竹市,https://maps.google.com/?cid=14738182103599959014,24.8023188302915,120.9755874802915,24.7996208697085,120.9728895197085,"""weekday"": 2, ""open"": ""17:00"", ""close"": ""23:00"" / ""weekday"": 4, ""open"": ""17:00"", ""close"": ""23:00"""
8405302099431811759,清大夜市,24.7962646,120.9984199,東區建功路10號,300,香山區,4.0,北部,新竹市,https://maps.google.com/?cid=8405302099431811759,24.7976677802915,120.9997048802915,24.7949698197085,120.9970069197085,"""weekday"": 1, ""open"": ""17:00"", ""close"": ""00:00"" / ""weekday"": 2, ""open"": ""17:00"", ""close"": ""00:00"" / ""weekday"": 3, ""open"": ""17:00"", ""close"": ""00:00"" / ""weekday"": 4, ""open"": ""17:00"", ""close"": ""00:00"" / ""weekday"": 5, ""open"": ""17:00"", ""close"": ""00:00"" / ""weekday"": 6, ""open"": ""17:00"", ""close"": ""00:00"""
14739955334966240488,青草湖夜市,24.7692143,120.9773363,東區,300,香山區,3.9,北部,新竹市,https://maps.google.com/?cid=14739955334966240488,24.7705601802915,120.9786190802915,24.76786221970849,120.9759211197085,"""weekday"": 3, ""open"": ""18:00"", ""close"": ""23:00"""
3654164282217050588,湖口夜市,24.9033862,121.0495362,湖口鄉中興街140號,303,湖口鄉,3.5,北部,新竹縣,https://maps.google.com/?cid=3654164282217050588,24.9047342802915,121.0508907802915,24.9020363197085,121.0481928197085,"""weekday"": 4, ""open"": ""17:30"", ""close"": ""22:30"""
12504170544176309628,新庄子夜市,24.9013818,120.9844481,新豐鄉重興村,304,新豐鄉,4.0,北部,新竹縣,https://maps.google.com/?cid=12504170544176309628,24.9029755802915,120.9860163302915,24.9002776197085,120.9833183697085,"""weekday"": 5, ""open"": ""17:00"", ""close"": ""23:00"""
2349089933555468697,新豐夜市,24.8698462,120.9959279,新豐鄉,304,新豐鄉,3.7,北部,新竹縣,https://maps.google.com/?cid=2349089933555468697,24.8710659802915,120.9973245302915,24.8683680197085,120.9946265697085,"""weekday"": 1, ""open"": ""18:00"", ""close"": ""23:00"""
16341691196497100552,周三新埔鎮夜市,24.8242599,121.0815852,新埔鎮,305,新埔鎮,3.8,北部,新竹縣,https://maps.google.com/?cid=16341691196497100552,24.8256963802915,121.0828796302915,24.8229984197085,121.0801816697085,"""weekday"": 3, ""open"": ""16:00"", ""close"": ""22:00"""
9058482792971952298,關西夜市,24.7829333,121.1784034,關西鎮中豐路一段162號,306,關西鎮,3.8,北部,新竹縣,https://maps.google.com/?cid=9058482792971952298,24.7842802302915,121.1798866302915,24.7815822697085,121.1771886697085,"""weekday"": 2, ""open"": ""18:00"", ""close"": ""22:00"""
2047566981798253965,新竹二重埔夜市,24.765252,121.0574823,竹東鎮中興路三段39號,310,竹東鎮,3.9,北部,新竹縣,https://maps.google.com/?cid=2047566981798253965,24.7666292302915,121.0588166802915,24.7639312697085,121.0561187197085,"""weekday"": 4, ""open"": ""18:00"", ""close"": ""23:00"""
68412710796512189,竹中夜市,24.7809963,121.0322635,竹東鎮,310,竹東鎮,3.7,北部,新竹縣,https://maps.google.com/?cid=68412710796512189,24.7823756802915,121.0336118802915,24.7796777197085,121.0309139197085,"""weekday"": 1, ""open"": ""17:00"", ""close"": ""22:00"""
7932711249866151711,竹東觀光夜市,24.7365307,121.0977422,竹東鎮沿河街411號,310,竹東鎮,4.2,北部,新竹縣,https://maps.google.com/?cid=7932711249866151711,24.7378803302915,121.0990920802915,24.7351823697085,121.0963941197085,"""weekday"": 6, ""open"": ""18:00"", ""close"": ""23:00"""
3089153217708067025,中原夜市,24.9556104,121.240614,中壢區實踐路日新路,320,中壢區,4.2,北部,桃園市,https://maps.google.com/?cid=3089153217708067025,24.9569999802915,121.2419988802915,24.9543020197085,121.2393009197085,"""weekday"": 0, ""open"": ""16:00"", ""close"": ""00:00"" / ""weekday"": 1, ""open"": ""16:00"", ""close"": ""00:00"" / ""weekday"": 2, ""open"": ""16:00"", ""close"": ""00:00"" / ""weekday"": 3, ""open"": ""16:00"", ""close"": ""00:00"" / ""weekday"": 4, ""open"": ""16:00"", ""close"": ""00:00"" / ""weekday"": 5, ""open"": ""16:00"", ""close"": ""00:00"" / ""weekday"": 6, ""open"": ""16:00"", ""close"": ""00:00"""
2198612570772041693,中壢區觀光夜市,24.9599913,121.2151627,中壢區新明路,320,中壢區,4.2,北部,桃園市,https://maps.google.com/?cid=2198612570772041693,24.9609807302915,121.2163945302915,24.9582827697085,121.2136965697085,"""weekday"": 0, ""open"": ""17:00"", ""close"": ""00:00"" / ""weekday"": 1, ""open"": ""17:00"", ""close"": ""00:00"" / ""weekday"": 2, ""open"": ""17:00"", ""close"": ""00:00"" / ""weekday"": 3, ""open"": ""17:00"", ""close"": ""00:00"" / ""weekday"": 4, ""open"": ""17:00"", ""close"": ""00:00"" / ""weekday"": 5, ""open"": ""17:00"", ""close"": ""00:00"" / ""weekday"": 6, ""open"": ""17:00"", ""close"": ""00:00"""
1287161150593518114,竹北夜市,24.8396309,120.9944896,竹北市環北路五段,320,中壢區,3.9,北部,新竹縣,https://maps.google.com/?cid=1287161150593518114,24.8410110302915,120.9958513802915,24.8383130697085,120.9931534197085,"""weekday"": 0, ""open"": ""17:00"", ""close"": ""23:00"" / ""weekday"": 5, ""open"": ""17:00"", ""close"": ""00:00"" / ""weekday"": 6, ""open"": ""17:00"", ""close"": ""23:00"""
13840862183516925869,埔心夜市,24.920011,121.183113,楊梅區火車站後站出口,326,楊梅區,3.8,北部,桃園市,https://maps.google.com/?cid=13840862183516925869,24.9212836802915,121.1844516802915,24.9185857197085,121.1817537197085,"""weekday"": 3, ""open"": ""16:00"", ""close"": ""23:00"" / ""weekday"": 6, ""open"": ""16:00"", ""close"": ""23:00"""
1455926098968508203,新屋夜市,24.9736596,121.0976909,新屋區中山路555號,327,新屋區,4.1,北部,桃園市,https://maps.google.com/?cid=1455926098968508203,24.9750287802915,121.0990439802915,24.9723308197085,121.0963460197085,"""weekday"": 0, ""open"": ""16:00"", ""close"": ""22:00"""
14490190895208553935,新坡夜市,25.0084718,121.1425616,觀音區中山路二段923號,328,觀音區,3.8,北部,桃園市,https://maps.google.com/?cid=14490190895208553935,25.0098972302915,121.1439696802915,25.0071992697085,121.1412717197085,"""weekday"": 1, ""open"": ""17:00"", ""close"": ""23:00"" / ""weekday"": 6, ""open"": ""17:00"", ""close"": ""23:00"""
4304044142745952424,草漯夜市,25.043166,121.138723,觀音區五福街29號,328,觀音區,3.6,北部,桃園市,https://maps.google.com/?cid=4304044142745952424,25.0445335802915,121.1401042802915,25.0418356197085,121.1374063197085,"""weekday"": 2, ""open"": ""18:30"", ""close"": ""22:30"" / ""weekday"": 4, ""open"": ""18:30"", ""close"": ""22:30"""
16902719294654281491,桃園觀光夜市,25.0026972,121.3060018,桃園區中正路與號北埔路交叉口,330,桃園區,4.0,北部,桃園市,https://maps.google.com/?cid=16902719294654281491,25.0040305802915,121.3073208802915,25.0013326197085,121.3046229197085,"""weekday"": 0, ""open"": ""17:00"", ""close"": ""01:00"" / ""weekday"": 1, ""open"": ""17:00"", ""close"": ""00:00"" / ""weekday"": 2, ""open"": ""17:00"", ""close"": ""00:00"" / ""weekday"": 3, ""open"": ""17:00"", ""close"": ""00:00"" / ""weekday"": 4, ""open"": ""17:00"", ""close"": ""00:00"" / ""weekday"": 5, ""open"": ""17:00"", ""close"": ""00:00"" / ""weekday"": 6, ""open"": ""17:00"", ""close"": ""01:00"""
11316718145464069396,八德興仁花園夜市,24.930651,121.283119,八德區長興路46號,334,八德區,4.3,北部,桃園市,https://maps.google.com/?cid=11316718145464069396,24.93193403029151,121.2844620802915,24.9292360697085,121.2817641197085,"""weekday"": 0, ""open"": ""17:00"", ""close"": ""00:00"" / ""weekday"": 5, ""open"": ""17:00"", ""close"": ""00:00"" / ""weekday"": 6, ""open"": ""17:00"", ""close"": ""00:00"""
11723881231446705412,仁和夜市,24.899282,121.2752552,大溪區仁和二街,335,大溪區,3.6,北部,桃園市,https://maps.google.com/?cid=11723881231446705412,24.9006351302915,121.2766098302915,24.8979371697085,121.2739118697085,"""weekday"": 5, ""open"": ""18:00"", ""close"": ""23:00"""
14821542361441998880,大溪夜市,24.8784094,121.290891,大溪區文化路,335,大溪區,4.1,北部,桃園市,https://maps.google.com/?cid=14821542361441998880,24.87975258029151,121.2922488802915,24.8770546197085,121.2895509197085,"""weekday"": 4, ""open"": ""17:00"", ""close"": ""21:30"""
5399386721851442708,大園夜市,25.0664081,121.2002559,大園區民生南路,337,大園區,3.7,北部,桃園市,https://maps.google.com/?cid=5399386721851442708,25.06790693029151,121.2017422802915,25.0652089697085,121.1990443197085,"""weekday"": 0, ""open"": ""17:00"", ""close"": ""00:00"" / ""weekday"": 5, ""open"": ""17:00"", ""close"": ""00:00"""
1664070875083181557,菓林夜市,25.0737924,121.2590647,大園區三和路22巷,337,大園區,3.8,北部,桃園市,https://maps.google.com/?cid=1664070875083181557,25.07516263029151,121.2602255802915,25.0724646697085,121.2575276197085,"""weekday"": 4, ""open"": ""17:00"", ""close"": ""23:00"" / ""weekday"": 6, ""open"": ""17:00"", ""close"": ""23:00"""
1455990262518941616,南崁五福夜市,25.0516028,121.2958793,蘆竹區仁愛路一段,338,蘆竹區,4.0,北部,桃園市,https://maps.google.com/?cid=1455990262518941616,25.0529409802915,121.2972004302915,25.0502430197085,121.2945024697085,"""weekday"": 2, ""open"": ""17:30"", ""close"": ""23:00"" / ""weekday"": 5, ""open"": ""17:30"", ""close"": ""23:00"" / ""weekday"": 6, ""open"": ""17:30"", ""close"": ""22:30"""
150540228065262270,大竹夜市,25.0221245,121.2639,蘆竹區大竹路449巷,338,蘆竹區,4.0,北部,桃園市,https://maps.google.com/?cid=150540228065262270,25.0233635802915,121.2651725302915,25.0206656197085,121.2624745697085,"""weekday"": 1, ""open"": ""17:00"", ""close"": ""22:00"" / ""weekday"": 4, ""open"": ""17:00"", ""close"": ""22:00"""
13322134610127871667,山腳夜市,25.0845054,121.2872668,蘆竹區南山路三段274巷9號,338,蘆竹區,3.8,北部,桃園市,https://maps.google.com/?cid=13322134610127871667,25.0858159302915,121.2886052302915,25.0831179697085,121.2859072697085,"""weekday"": 3, ""open"": ""17:00"", ""close"": ""22:00"""
17488727456221147583,建國夜市,24.697435,120.9065829,頭份市建國路,351,頭份市,4.1,中部,苗栗縣,https://maps.google.com/?cid=17488727456221147583,24.69894303029151,120.9079617802915,24.6962450697085,120.9052638197085,"""weekday"": 2, ""open"": ""16:00"", ""close"": ""23:00"" / ""weekday"": 5, ""open"": ""16:00"", ""close"": ""23:00"""
3129262950798876238,後龍夜市,24.611946,120.7866665,後龍鎮,356,後龍鎮,4.4,中部,苗栗縣,https://maps.google.com/?cid=3129262950798876238,24.6133208302915,120.7880314802915,24.6106228697085,120.7853335197085,"""weekday"": 0, ""open"": ""17:00"", ""close"": ""23:00"""
7057423689052473858,通霄夜市,24.4888587,120.6826824,通霄鎮自強路,357,通霄鎮,3.8,中部,苗栗縣,https://maps.google.com/?cid=7057423689052473858,24.49019653029151,120.6840449302915,24.4874985697085,120.6813469697085,"""weekday"": 5, ""open"": ""18:00"", ""close"": ""23:00"""
11624593317838802518,苑裡夜市,24.4403553,120.6520591,苑裡鎮大同路,358,苑裡鎮,4.2,中部,苗栗縣,https://maps.google.com/?cid=11624593317838802518,24.4419091802915,120.6534239302915,24.4392112197085,120.6507259697085,"""weekday"": 6, ""open"": ""18:00"", ""close"": ""22:00"""
6430218839144944402,鬼門關夜市,24.4416761,120.6555244,苑裡鎮為公路1號,358,苑裡鎮,3.5,中部,苗栗縣,https://maps.google.com/?cid=6430218839144944402,24.4430863302915,120.6569012802915,24.44038836970849,120.6542033197085,"""weekday"": 6, ""open"": ""12:00"", ""close"": ""22:00"""
315265651083198760,苗栗市英才觀光夜市,24.5699173,120.8204987,苗栗市英才路,360,苗栗市,4.0,中部,苗栗縣,https://maps.google.com/?cid=315265651083198760,24.5714391802915,120.8220282302915,24.5687412197085,120.8193302697085,"""weekday"": 0, ""open"": ""17:00"", ""close"": ""22:00"" / ""weekday"": 3, ""open"": ""17:00"", ""close"": ""22:00"" / ""weekday"": 5, ""open"": ""18:30"", ""close"": ""23:30"" / ""weekday"": 6, ""open"": ""17:00"", ""close"": ""23:00"""
10061003395772235247,銅鑼巷弄夜市,24.4861708,120.7878829,銅鑼鄉永樂路,366,銅鑼鄉,3.9,中部,苗栗縣,https://maps.google.com/?cid=10061003395772235247,24.4875232302915,120.7891964802915,24.4848252697085,120.7864985197085,"""weekday"": 1, ""open"": ""17:00"", ""close"": ""21:00"""
5314789129795000340,廣盛老街夜市,24.412484,120.7716486,三義鄉中正路157號,367,三義鄉,4.2,中部,苗栗縣,https://maps.google.com/?cid=5314789129795000340,24.4138814302915,120.7729317802915,24.4111834697085,120.7702338197085,"""weekday"": 5, ""open"": ""17:00"", ""close"": ""21:30"""
12042773553364292468,卓蘭觀光夜市,24.3104067,120.8235031,卓蘭鎮卓蘭鎮,369,卓蘭鎮,4.1,中部,苗栗縣,https://maps.google.com/?cid=12042773553364292468,24.3117117302915,120.8248563302915,24.3090137697085,120.8221583697085,"""weekday"": 4, ""open"": ""16:30"", ""close"": ""22:45"""
15312798566606811376,中華路夜市,24.1471874,120.678759,中區公園路,400,中區,3.9,中部,臺中市,https://maps.google.com/?cid=15312798566606811376,24.1485267802915,120.6800942302915,24.1458288197085,120.6773962697085,"""weekday"": 0, ""open"": ""16:00"", ""close"": ""04:00"" / ""weekday"": 1, ""open"": ""16:00"", ""close"": ""04:00"" / ""weekday"": 2, ""open"": ""16:00"", ""close"": ""04:00"" / ""weekday"": 3, ""open"": ""16:00"", ""close"": ""04:00"" / ""weekday"": 4, ""open"": ""16:00"", ""close"": ""04:00"" / ""weekday"": 5, ""open"": ""16:00"", ""close"": ""04:00"" / ""weekday"": 6, ""open"": ""16:00"", ""close"": ""04:00"""
17935120735455652227,旱溪觀光夜市,24.133514,120.7008054,東區旱溪東路一段,401,東區,4.4,中部,臺中市,https://maps.google.com/?cid=17935120735455652227,24.1346820802915,120.7022596802915,24.13198411970849,120.6995617197085,"""weekday"": 0, ""open"": ""00:00"", ""close"": ""23:59"" / ""weekday"": 1, ""open"": ""00:00"", ""close"": ""23:59"" / ""weekday"": 2, ""open"": ""00:00"", ""close"": ""23:59"" / ""weekday"": 3, ""open"": ""00:00"", ""close"": ""23:59"" / ""weekday"": 4, ""open"": ""17:00"", ""close"": ""01:00"" / ""weekday"": 5, ""open"": ""17:00"", ""close"": ""01:00"" / ""weekday"": 6, ""open"": ""17:00"", ""close"": ""00:00"""
13301929239105837802,大慶夜市,24.1231013,120.6552828,南區建國南路一段208號,402,南區,4.2,中部,臺中市,https://maps.google.com/?cid=13301929239105837802,24.1243471302915,120.6564153802915,24.1216491697085,120.6537174197085,"""weekday"": 0, ""open"": ""17:00"", ""close"": ""00:00"" / ""weekday"": 3, ""open"": ""17:00"", ""close"": ""00:00"" / ""weekday"": 5, ""open"": ""17:00"", ""close"": ""00:00"" / ""weekday"": 6, ""open"": ""17:00"", ""close"": ""00:00"""
13322719201968177667,忠孝路觀光夜市,24.1292999,120.681553,南區忠孝路136號,402,南區,4.3,中部,臺中市,https://maps.google.com/?cid=13322719201968177667,24.1306996802915,120.6828759302915,24.1280017197085,120.6801779697085,"""weekday"": 0, ""open"": ""15:00"", ""close"": ""23:00"" / ""weekday"": 1, ""open"": ""15:00"", ""close"": ""23:00"" / ""weekday"": 2, ""open"": ""15:00"", ""close"": ""23:00"" / ""weekday"": 3, ""open"": ""15:00"", ""close"": ""23:00"" / ""weekday"": 4, ""open"": ""15:00"", ""close"": ""23:00"" / ""weekday"": 5, ""open"": ""15:00"", ""close"": ""23:00"" / ""weekday"": 6, ""open"": ""15:00"", ""close"": ""23:00"""
14800082064822354453,四張犁夜市,24.1943803,120.6793981,北屯區豐樂二街29號,406,北屯區,4.1,中部,臺中市,https://maps.google.com/?cid=14800082064822354453,24.1958322302915,120.6806970802915,24.1931342697085,120.6779991197085,"""weekday"": 0, ""open"": ""17:00"", ""close"": ""23:00"""
17179667944016280749,總站夜市,24.1844475,120.7082321,北屯區敦富路與號敦富一街口,406,北屯區,3.9,中部,臺中市,https://maps.google.com/?cid=17179667944016280749,24.1857126302915,120.7093998802915,24.18301466970849,120.7067019197085,"""weekday"": 0, ""open"": ""00:00"", ""close"": ""23:59"" / ""weekday"": 1, ""open"": ""00:00"", ""close"": ""23:59"" / ""weekday"": 2, ""open"": ""00:00"", ""close"": ""23:59"" / ""weekday"": 3, ""open"": ""00:00"", ""close"": ""23:59"" / ""weekday"": 4, ""open"": ""00:00"", ""close"": ""23:59"" / ""weekday"": 5, ""open"": ""17:30"", ""close"": ""01:00"" / ""weekday"": 6, ""open"": ""17:30"", ""close"": ""01:00"""
1088192056159888953,逢甲夜市,24.1761706,120.6456267,西屯區文華路,407,西屯區,4.3,中部,臺中市,https://maps.google.com/?cid=1088192056159888953,24.1820087,120.6506325,24.1750819,120.6419034,"""weekday"": 0, ""open"": ""13:00"", ""close"": ""01:00"" / ""weekday"": 1, ""open"": ""13:00"", ""close"": ""01:00"" / ""weekday"": 2, ""open"": ""13:00"", ""close"": ""01:00"" / ""weekday"": 3, ""open"": ""13:00"", ""close"": ""01:00"" / ""weekday"": 4, ""open"": ""13:00"", ""close"": ""01:00"" / ""weekday"": 5, ""open"": ""13:00"", ""close"": ""01:00"" / ""weekday"": 6, ""open"": ""13:00"", ""close"": ""01:00"""
10098375904944814274,太平東平夜市,24.1338269,120.7192628,太平區東平路501號,411,太平區,3.9,中部,臺中市,https://maps.google.com/?cid=10098375904944814274,24.1350712802915,120.7206184802915,24.1323733197085,120.7179205197085,"""weekday"": 1, ""open"": ""18:15"", ""close"": ""23:00"" / ""weekday"": 3, ""open"": ""18:15"", ""close"": ""23:00"" / ""weekday"": 6, ""open"": ""18:15"", ""close"": ""23:00"""
4756229622302388129,臺中市太平長億夜市,24.119504,120.7212439,太平區長億路1號,411,太平區,4.2,中部,臺中市,https://maps.google.com/?cid=4756229622302388129,24.1208803802915,120.7225587802915,24.1181824197085,120.7198608197085,"""weekday"": 0, ""open"": ""16:30"", ""close"": ""00:00"" / ""weekday"": 1, ""open"": ""16:30"", ""close"": ""00:00"" / ""weekday"": 2, ""open"": ""16:30"", ""close"": ""00:00"" / ""weekday"": 3, ""open"": ""16:30"", ""close"": ""00:00"" / ""weekday"": 4, ""open"": ""16:30"", ""close"": ""00:00"" / ""weekday"": 5, ""open"": ""16:30"", ""close"": ""00:00"" / ""weekday"": 6, ""open"": ""16:30"", ""close"": ""00:00"""
16555088058261054124,勝利夜市,24.101068,120.6858518,大里區德芳南二街,412,大里區,4.1,中部,臺中市,https://maps.google.com/?cid=16555088058261054124,24.1024425302915,120.6870590802915,24.0997445697085,120.6843611197085,"""weekday"": 1, ""open"": ""17:00"", ""close"": ""23:00"" / ""weekday"": 4, ""open"": ""17:00"", ""close"": ""23:00"""
8815059148097964674,亞洲大學小夜市,24.0438118,120.6882229,霧峰區柳豐二街,413,霧峰區,4.0,中部,臺中市,https://maps.google.com/?cid=8815059148097964674,24.0451523802915,120.6897643802915,24.0424544197085,120.6870664197085,"""weekday"": 2, ""open"": ""16:00"", ""close"": ""22:00"""
138133068671118877,斗六門當歸鴨,24.0636368,120.6968908,霧峰區樹仁路50號,413,霧峰區,3.9,中部,臺中市,https://maps.google.com/?cid=138133068671118877,24.0651865302915,120.6983238802915,24.0624885697085,120.6956259197085,"""weekday"": 0, ""open"": ""11:00"", ""close"": ""23:00"" / ""weekday"": 1, ""open"": ""11:00"", ""close"": ""22:30"" / ""weekday"": 2, ""open"": ""11:00"", ""close"": ""22:30"" / ""weekday"": 3, ""open"": ""11:00"", ""close"": ""22:30"" / ""weekday"": 4, ""open"": ""11:00"", ""close"": ""22:30"" / ""weekday"": 5, ""open"": ""11:00"", ""close"": ""22:30"" / ""weekday"": 6, ""open"": ""11:00"", ""close"": ""23:00"""
17549391401738871143,霧峰大東家觀光夜市,24.0681669,120.7003248,霧峰區德泰街45號,413,霧峰區,4.3,中部,臺中市,https://maps.google.com/?cid=17549391401738871143,24.06954393029151,120.7016505302915,24.0668459697085,120.6989525697085,"""weekday"": 2, ""open"": ""16:00"", ""close"": ""00:00"" / ""weekday"": 5, ""open"": ""17:00"", ""close"": ""00:00"""
6357147272288182132,霧峰週四四德夜市,24.0648163,120.6785562,霧峰區四德路392號,413,霧峰區,4.3,中部,臺中市,https://maps.google.com/?cid=6357147272288182132,24.0661282802915,120.6799163302915,24.0634303197085,120.6772183697085,"""weekday"": 4, ""open"": ""17:00"", ""close"": ""22:00"""
7748962407145138872,臺中市豐原區葫蘆墩觀光夜市,24.249009,120.730445,豐原區豐東路89號,420,豐原區,3.8,中部,臺中市,https://maps.google.com/?cid=7748962407145138872,24.2503012302915,120.7318587802915,24.2476032697085,120.7291608197085,"""weekday"": 0, ""open"": ""17:00"", ""close"": ""00:00"" / ""weekday"": 3, ""open"": ""17:00"", ""close"": ""00:00"" / ""weekday"": 5, ""open"": ""17:00"", ""close"": ""00:00"" / ""weekday"": 6, ""open"": ""17:00"", ""close"": ""00:00"""
10972268568929907700,豐原廟東夜市,24.2511483,120.7192722,豐原區中正路167巷,420,豐原區,4.2,中部,臺中市,https://maps.google.com/?cid=10972268568929907700,24.2527670802915,120.7205833302915,24.2500691197085,120.7178853697085,"""weekday"": 0, ""open"": ""10:00"", ""close"": ""23:00"" / ""weekday"": 1, ""open"": ""10:00"", ""close"": ""23:00"" / ""weekday"": 2, ""open"": ""10:00"", ""close"": ""23:00"" / ""weekday"": 3, ""open"": ""10:00"", ""close"": ""23:00"" / ""weekday"": 4, ""open"": ""10:00"", ""close"": ""23:00"" / ""weekday"": 5, ""open"": ""10:00"", ""close"": ""23:00"" / ""weekday"": 6, ""open"": ""10:00"", ""close"": ""23:00"""
4681377219043814701,后里夜市,24.3081844,120.7243127,后里區甲后路329巷1弄44號,421,后里區,3.9,中部,臺中市,https://maps.google.com/?cid=4681377219043814701,24.3096925802915,120.7256626302915,24.3069946197085,120.7229646697085,"""weekday"": 1, ""open"": ""17:00"", ""close"": ""23:00"" / ""weekday"": 5, ""open"": ""17:00"", ""close"": ""23:00"""
7114527082353944290,東勢夜市,24.2554468,120.82739,東勢區中山路13號,423,東勢區,4.1,中部,臺中市,https://maps.google.com/?cid=7114527082353944290,24.2567633302915,120.8287478302915,24.2540653697085,120.8260498697085,"""weekday"": 6, ""open"": ""16:30"", ""close"": ""00:00"""
2976925621869307157,潭子勝利夜市,24.2162897,120.698137,潭子區雅潭路一段175號,427,潭子區,3.9,中部,臺中市,https://maps.google.com/?cid=2976925621869307157,24.2177648302915,120.6994136302915,24.2150668697085,120.6967156697085,"""weekday"": 1, ""open"": ""17:00"", ""close"": ""23:00"" / ""weekday"": 4, ""open"": ""17:00"", ""close"": ""23:00"" / ""weekday"": 6, ""open"": ""17:00"", ""close"": ""23:00"""
14822673262165419259,潭子區頭家厝得天宮夜市,24.1955607,120.7014952,潭子區得天街30-34號,427,潭子區,4.3,中部,臺中市,https://maps.google.com/?cid=14822673262165419259,24.1969244302915,120.7028570802915,24.1942264697085,120.7001591197085,"""weekday"": 2, ""open"": ""17:00"", ""close"": ""22:00"" / ""weekday"": 5, ""open"": ""17:00"", ""close"": ""22:00"""
3562325353930925921,大雅雅潭夜市,24.2208536,120.654935,大雅區雅潭路四段311號,428,大雅區,4.1,中部,臺中市,https://maps.google.com/?cid=3562325353930925921,24.2222461802915,120.6562919802915,24.2195482197085,120.6535940197085,"""weekday"": 0, ""open"": ""17:30"", ""close"": ""23:30"" / ""weekday"": 3, ""open"": ""17:30"", ""close"": ""23:30"" / ""weekday"": 5, ""open"": ""17:30"", ""close"": ""23:30"" / ""weekday"": 6, ""open"": ""17:30"", ""close"": ""23:30"""
4302188982943425118,北庄星期二夜市,24.2579011,120.6652585,神岡區中山路1279號,429,神岡區,3.9,中部,臺中市,https://maps.google.com/?cid=4302188982943425118,24.2593043302915,120.6666239802915,24.25660636970849,120.6639260197085,"""weekday"": 2, ""open"": ""17:30"", ""close"": ""23:30"""
8780792864352431734,大肚夜市,24.1553508,120.545188,大肚區榮華街24號,432,大肚區,4.2,中部,臺中市,https://maps.google.com/?cid=8780792864352431734,24.1566427802915,120.5464019302915,24.1539448197085,120.5437039697085,"""weekday"": 0, ""open"": ""17:00"", ""close"": ""22:00"""
2740084456546732620,靜宜夜市,24.2273757,120.576153,沙鹿區靜宜大學附近號,433,沙鹿區,3.8,中部,臺中市,https://maps.google.com/?cid=2740084456546732620,24.2286848302915,120.5775077302915,24.2259868697085,120.5748097697085,"""weekday"": 1, ""open"": ""18:00"", ""close"": ""00:30"" / ""weekday"": 3, ""open"": ""18:00"", ""close"": ""00:30"" / ""weekday"": 4, ""open"": ""18:00"", ""close"": ""00:30"""
17545610194660539772,大肚山龍井自強夜市,24.1762464,120.5794905,龍井區向上路六段,434,龍井區,4.1,中部,臺中市,https://maps.google.com/?cid=17545610194660539772,24.1776623302915,120.5808600302915,24.1749643697085,120.5781620697085,"""weekday"": 3, ""open"": ""16:00"", ""close"": ""23:00"" / ""weekday"": 6, ""open"": ""16:00"", ""close"": ""23:00"""
9939975028693642813,東海別墅夜市,24.1814682,120.5926162,龍井區新興路9號,434,龍井區,4.0,中部,臺中市,https://maps.google.com/?cid=9939975028693642813,24.1828442802915,120.5939427302915,24.18014631970849,120.5912447697085,"""weekday"": 0, ""open"": ""00:00"", ""close"": ""23:59"" / ""weekday"": 1, ""open"": ""00:00"", ""close"": ""23:59"" / ""weekday"": 2, ""open"": ""00:00"", ""close"": ""23:59"" / ""weekday"": 3, ""open"": ""00:00"", ""close"": ""23:59"" / ""weekday"": 4, ""open"": ""00:00"", ""close"": ""23:59"" / ""weekday"": 5, ""open"": ""00:00"", ""close"": ""23:59"" / ""weekday"": 6, ""open"": ""00:00"", ""close"": ""23:59"""
3039101553809236427,龍井茄投夜市,24.1784429,120.5299139,龍井區茄投路78號對面,434,龍井區,4.2,中部,臺中市,https://maps.google.com/?cid=3039101553809236427,24.17984473029151,120.5312805302915,24.1771467697085,120.5285825697085,"""weekday"": 3, ""open"": ""16:50"", ""close"": ""21:50"" / ""weekday"": 6, ""open"": ""16:50"", ""close"": ""21:50"""
10160497417660803670,龍津夜市,24.197174,120.52303,龍井區中央路一段3巷10號,434,龍井區,4.2,中部,臺中市,https://maps.google.com/?cid=10160497417660803670,24.1984993802915,120.5243746802915,24.19580141970849,120.5216767197085,"""weekday"": 1, ""open"": ""17:00"", ""close"": ""23:30"""
17382191031520779298,梧棲中港觀光夜市,24.2433572,120.5449177,梧棲區文昌路280號,435,梧棲區,3.9,中部,臺中市,https://maps.google.com/?cid=17382191031520779298,24.2445579302915,120.5464343302915,24.2418599697085,120.5437363697085,"""weekday"": 2, ""open"": ""16:30"", ""close"": ""23:30"" / ""weekday"": 4, ""open"": ""16:30"", ""close"": ""23:30"" / ""weekday"": 5, ""open"": ""16:30"", ""close"": ""23:30"" / ""weekday"": 6, ""open"": ""16:30"", ""close"": ""23:30"""
13793483982462254682,梧棲夜市,24.247821,120.530124,梧棲區文化路一段537號,435,梧棲區,4.2,中部,臺中市,https://maps.google.com/?cid=13793483982462254682,24.24916543029151,120.5314877302915,24.2464674697085,120.5287897697085,"""weekday"": 2, ""open"": ""18:00"", ""close"": ""00:00"" / ""weekday"": 5, ""open"": ""18:00"", ""close"": ""00:00"""
18317110341507249268,清水五權夜市,24.2769543,120.568073,清水區民有路157巷48號五權路民享路口,436,清水區,4.3,中部,臺中市,https://maps.google.com/?cid=18317110341507249268,24.27826153029151,120.5694169302915,24.2755635697085,120.5667189697085,"""weekday"": 0, ""open"": ""17:00"", ""close"": ""00:00"" / ""weekday"": 3, ""open"": ""17:00"", ""close"": ""00:00"" / ""weekday"": 5, ""open"": ""17:00"", ""close"": ""00:00"" / ""weekday"": 6, ""open"": ""17:00"", ""close"": ""00:00"""
12415490857455154142,大甲蔣公路夜市,24.3461589,120.6224095,大甲區蔣公路,437,大甲區,4.4,中部,臺中市,https://maps.google.com/?cid=12415490857455154142,24.3475398302915,120.6237728302915,24.3448418697085,120.6210748697085,"""weekday"": 0, ""open"": ""11:00"", ""close"": ""23:30"" / ""weekday"": 1, ""open"": ""16:00"", ""close"": ""23:30"" / ""weekday"": 2, ""open"": ""16:00"", ""close"": ""23:30"" / ""weekday"": 3, ""open"": ""16:00"", ""close"": ""23:30"" / ""weekday"": 4, ""open"": ""16:00"", ""close"": ""23:30"" / ""weekday"": 5, ""open"": ""16:00"", ""close"": ""23:30"" / ""weekday"": 6, ""open"": ""16:00"", ""close"": ""23:00"""
12606283227992780213,外埔夜市,24.3272181,120.6570866,外埔區甲后路三段783巷12號,438,外埔區,3.9,中部,臺中市,https://maps.google.com/?cid=12606283227992780213,24.3285592302915,120.6583951802915,24.3258612697085,120.6556972197085,"""weekday"": 0, ""open"": ""18:00"", ""close"": ""23:30"""
14490092494757238103,彰南路(冠天)夜市,24.0871586,120.5689477,彰化市彰南路一段Toyota北彰化營業所旁空地,500,彰化市,4.4,中部,彰化縣,https://maps.google.com/?cid=14490092494757238103,24.0885342802915,120.5703075302915,24.08583631970849,120.5676095697085,"""weekday"": 0, ""open"": ""17:00"", ""close"": ""23:00"""
17087762823278290887,精誠夜市,24.0726548,120.52671,彰化市林森路162號,500,彰化市,4.4,中部,彰化縣,https://maps.google.com/?cid=17087762823278290887,24.07394913029151,120.5279062302915,24.0712511697085,120.5252082697085,"""weekday"": 0, ""open"": ""18:00"", ""close"": ""01:00"" / ""weekday"": 3, ""open"": ""18:00"", ""close"": ""01:00"" / ""weekday"": 4, ""open"": ""18:00"", ""close"": ""01:00"" / ""weekday"": 5, ""open"": ""18:00"", ""close"": ""01:00"" / ""weekday"": 6, ""open"": ""18:00"", ""close"": ""01:00"""
475369840322608297,社口週一週四夜市,24.0149914,120.630005,芬園鄉清水路,502,芬園鄉,4.2,中部,彰化縣,https://maps.google.com/?cid=475369840322608297,24.01633753029151,120.6313196802915,24.0136395697085,120.6286217197085,"""weekday"": 1, ""open"": ""17:00"", ""close"": ""23:00"" / ""weekday"": 4, ""open"": ""17:00"", ""close"": ""23:00"""
10238689837270717746,花壇夜市,24.0286171,120.5428793,花壇鄉長沙村,503,花壇鄉,4.3,中部,彰化縣,https://maps.google.com/?cid=10238689837270717746,24.0299787802915,120.5442921802915,24.0272808197085,120.5415942197085,"""weekday"": 0, ""open"": ""18:00"", ""close"": ""01:00"" / ""weekday"": 2, ""open"": ""18:00"", ""close"": ""01:00"""
5371561527873099068,秀水禮拜六夜市,24.0384483,120.5076293,秀水鄉中山路39號,504,秀水鄉,4.4,中部,彰化縣,https://maps.google.com/?cid=5371561527873099068,24.0399740302915,120.5088995302915,24.0372760697085,120.5062015697085,"""weekday"": 3, ""open"": ""17:30"", ""close"": ""23:00"" / ""weekday"": 6, ""open"": ""17:30"", ""close"": ""23:00"""
10817926219164013493,秀水黃昏夜市,24.0327235,120.4990383,秀水鄉彰水路二段684號,504,秀水鄉,3.5,中部,彰化縣,https://maps.google.com/?cid=10817926219164013493,24.0340701802915,120.5003633302915,24.03137221970849,120.4976653697085,"""weekday"": 1, ""open"": ""17:00"", ""close"": ""23:00"" / ""weekday"": 5, ""open"": ""17:00"", ""close"": ""23:00"""
15373266071515635623,草港夜市,24.1083223,120.4582006,鹿港鎮草中里,505,鹿港鎮,4.3,中部,彰化縣,https://maps.google.com/?cid=15373266071515635623,24.1096630802915,120.4595469302915,24.1069651197085,120.4568489697085,"""weekday"": 4, ""open"": ""18:00"", ""close"": ""22:30"""
11068148432462739842,頂番夜市,24.0854718,120.4797797,鹿港鎮鹿和路三段627號附近,505,鹿港鎮,3.6,中部,彰化縣,https://maps.google.com/?cid=11068148432462739842,24.0866821302915,120.4812232302915,24.0839841697085,120.4785252697085,"""weekday"": 5, ""open"": ""18:00"", ""close"": ""00:00"""
7288794702627132612,鹿港鹿和夜市,24.060418,120.440702,鹿港鎮彰化縣鹿港鎮,505,鹿港鎮,4.0,中部,彰化縣,https://maps.google.com/?cid=7288794702627132612,24.06176593029151,120.4418971302915,24.0590679697085,120.4391991697085,"""weekday"": 0, ""open"": ""18:00"", ""close"": ""00:00"" / ""weekday"": 2, ""open"": ""18:00"", ""close"": ""00:00"" / ""weekday"": 4, ""open"": ""18:00"", ""close"": ""00:00"""
17467396582742637499,線西星期一夜市,24.1327773,120.463184,線西鄉,507,線西鄉,4.1,中部,彰化縣,https://maps.google.com/?cid=17467396582742637499,24.1340975802915,120.4645188302915,24.13139961970849,120.4618208697085,"""weekday"": 1, ""open"": ""17:00"", ""close"": ""23:00"""
10687644120465405261,和美仁愛夜市,24.1060488,120.4910271,和美鎮鹿和路六段178號,508,和美鎮,4.1,中部,彰化縣,https://maps.google.com/?cid=10687644120465405261,24.1073480802915,120.4923619302915,24.1046501197085,120.4896639697085,"""weekday"": 2, ""open"": ""17:00"", ""close"": ""22:00"" / ""weekday"": 4, ""open"": ""17:00"", ""close"": ""22:00"""
11790793877578270816,伸港水尾夜市,24.1431951,120.4878567,伸港鄉新港路91號,509,伸港鄉,4.1,中部,彰化縣,https://maps.google.com/?cid=11790793877578270816,24.1445506302915,120.4893808302915,24.14185266970849,120.4866828697085,"""weekday"": 3, ""open"": ""17:30"", ""close"": ""22:00"""
11326340154717601237,伸港福安宮,24.1625171,120.4883948,伸港鄉福安路5號,509,伸港鄉,4.7,中部,彰化縣,https://maps.google.com/?cid=11326340154717601237,24.1638729302915,120.4897494802915,24.1611749697085,120.4870515197085,"""weekday"": 0, ""open"": ""05:00"", ""close"": ""20:30"" / ""weekday"": 1, ""open"": ""05:00"", ""close"": ""20:30"" / ""weekday"": 2, ""open"": ""05:00"", ""close"": ""20:30"" / ""weekday"": 3, ""open"": ""05:00"", ""close"": ""20:30"" / ""weekday"": 4, ""open"": ""05:00"", ""close"": ""20:30"" / ""weekday"": 5, ""open"": ""05:00"", ""close"": ""20:30"" / ""weekday"": 6, ""open"": ""05:00"", ""close"": ""20:30"""
15237366748077510001,員林大市場-星期三夜市,23.9647126,120.5737921,員林市浮圳路二段588號,510,員林市,4.0,中部,彰化縣,https://maps.google.com/?cid=15237366748077510001,23.9660629802915,120.5751773302915,23.9633650197085,120.5724793697085,"""weekday"": 3, ""open"": ""17:00"", ""close"": ""23:30"""
5450544505557745464,龍燈夜市,23.971767,120.567725,員林市龍富一街,510,員林市,4.1,中部,彰化縣,https://maps.google.com/?cid=5450544505557745464,23.9731118302915,120.5690613802915,23.9704138697085,120.5663634197085,"""weekday"": 0, ""open"": ""17:00"", ""close"": ""01:00"" / ""weekday"": 2, ""open"": ""17:00"", ""close"": ""01:00"" / ""weekday"": 5, ""open"": ""17:00"", ""close"": ""01:00"" / ""weekday"": 6, ""open"": ""17:00"", ""close"": ""01:00"""
2552378153936067781,社頭週六夜市,23.922944,120.58214,社頭鄉員集路三段750號,511,社頭鄉,4.1,中部,彰化縣,https://maps.google.com/?cid=2552378153936067781,23.9242041302915,120.5831664302915,23.9215061697085,120.5804684697085,"""weekday"": 2, ""open"": ""18:30"", ""close"": ""23:00"" / ""weekday"": 6, ""open"": ""18:30"", ""close"": ""23:00"""
11904782156644118801,永靖夜市,23.923042,120.5510395,永靖鄉東門路16號,512,永靖鄉,4.2,中部,彰化縣,https://maps.google.com/?cid=11904782156644118801,23.9243195302915,120.5524444302915,23.9216215697085,120.5497464697085,"""weekday"": 1, ""open"": ""17:00"", ""close"": ""23:00"""
17674497052536086533,溪湖大公路夜市,23.961971,120.4692567,溪湖鎮大公路288號,514,溪湖鎮,4.1,中部,彰化縣,https://maps.google.com/?cid=17674497052536086533,23.9632613802915,120.4707113802915,23.9605634197085,120.4680134197085,"""weekday"": 3, ""open"": ""17:00"", ""close"": ""23:00"""
1569553753060549654,溪湖忠溪觀光夜市,23.9538871,120.4859637,溪湖鎮忠溪路268號,514,溪湖鎮,4.5,中部,彰化縣,https://maps.google.com/?cid=1569553753060549654,23.9552211302915,120.4873102302915,23.9525231697085,120.4846122697085,"""weekday"": 2, ""open"": ""17:00"", ""close"": ""23:00"" / ""weekday"": 6, ""open"": ""17:00"", ""close"": ""23:00"""
10593509531257430553,溪湖星期三夜市,23.961992,120.4692436,"溪湖鎮大公路514號號, No. 288",514,溪湖鎮,4.1,中部,彰化縣,https://maps.google.com/?cid=10593509531257430553,23.9632730302915,120.4707055802915,23.9605750697085,120.4680076197085,"""weekday"": 3, ""open"": ""16:00"", ""close"": ""23:00"""
14509762780479043587,大村夜市,23.9922161,120.5444259,大村鄉,515,大村鄉,4.0,中部,彰化縣,https://maps.google.com/?cid=14509762780479043587,23.9935854802915,120.5457438302915,23.9908875197085,120.5430458697085,"""weekday"": 4, ""open"": ""17:00"", ""close"": ""23:00"""
7450008957929847054,埔鹽夜市,23.9980521,120.4749292,埔鹽鄉中華路,516,埔鹽鄉,4.0,中部,彰化縣,https://maps.google.com/?cid=7450008957929847054,23.99944743029151,120.4762789802915,23.9967494697085,120.4735810197085,"""weekday"": 5, ""open"": ""17:30"", ""close"": ""23:00"""
17097912256634994131,天盛村夜市,23.9832083,120.4287165,埔鹽鄉天盛村,516,埔鹽鄉,4.5,中部,彰化縣,https://maps.google.com/?cid=17097912256634994131,23.9845802802915,120.4300743802915,23.9818823197085,120.4273764197085,"""weekday"": 3, ""open"": ""17:00"", ""close"": ""23:00"""
13112604846615661852,新水夜市,23.9868217,120.4464398,埔鹽鄉大新路510號,516,埔鹽鄉,4.2,中部,彰化縣,https://maps.google.com/?cid=13112604846615661852,23.9881671302915,120.4477954802915,23.9854691697085,120.4450975197085,"""weekday"": 6, ""open"": ""18:00"", ""close"": ""22:30"""
6766050661839141219,北斗五權路觀光夜市,23.8680449,120.5281193,北斗鎮五權路,521,北斗鎮,4.3,中部,彰化縣,https://maps.google.com/?cid=6766050661839141219,23.86944158029151,120.5293999802915,23.8667436197085,120.5267020197085,"""weekday"": 4, ""open"": ""17:00"", ""close"": ""00:00"""
9627718509405450886,田尾公路花園夜市,23.8968946,120.5325324,田尾鄉,522,田尾鄉,4.2,中部,彰化縣,https://maps.google.com/?cid=9627718509405450886,23.8981627802915,120.5339583802915,23.89546481970849,120.5312604197085,"""weekday"": 0, ""open"": ""17:00"", ""close"": ""00:00"" / ""weekday"": 6, ""open"": ""17:00"", ""close"": ""00:00"""
9225151292157847416,埤頭合興夜市,23.890481,120.458182,埤頭鄉文鄉路21號,523,埤頭鄉,4.0,中部,彰化縣,https://maps.google.com/?cid=9225151292157847416,23.8918326802915,120.4594972802915,23.8891347197085,120.4567993197085,"""weekday"": 4, ""open"": ""18:00"", ""close"": ""23:00"" / ""weekday"": 6, ""open"": ""16:00"", ""close"": ""22:00"""
2787132121849374933,溪州夜市,23.8578768,120.5034242,溪州鄉中山路三段736號 號,524,溪州鄉,3.9,中部,彰化縣,https://maps.google.com/?cid=2787132121849374933,23.8592634802915,120.5047206802915,23.8565655197085,120.5020227197085,"""weekday"": 1, ""open"": ""17:00"", ""close"": ""23:30"" / ""weekday"": 5, ""open"": ""17:00"", ""close"": ""23:30"""
9812784765299901941,竹塘夜市,23.8554791,120.4279916,竹塘鄉光明路249-1號,525,竹塘鄉,3.7,中部,彰化縣,https://maps.google.com/?cid=9812784765299901941,23.8568304802915,120.4292906302915,23.8541325197085,120.4265926697085,"""weekday"": 4, ""open"": ""17:00"", ""close"": ""00:00"""
14715681877815025807,仁愛路王子夜市,23.9043545,120.3653359,二林鎮照西路361-331號,526,二林鎮,4.0,中部,彰化縣,https://maps.google.com/?cid=14715681877815025807,23.9056084302915,120.3664973302915,23.90291046970849,120.3637993697085,"""weekday"": 2, ""open"": ""17:00"", ""close"": ""23:00"" / ""weekday"": 5, ""open"": ""18:00"", ""close"": ""23:00"""
972694854886309920,金仔角觀光夜市,23.895108,120.3709161,二林鎮大勇街23號,526,二林鎮,4.2,中部,彰化縣,https://maps.google.com/?cid=972694854886309920,23.8964570302915,120.3722635302915,23.89375906970849,120.3695655697085,"""weekday"": 6, ""open"": ""17:30"", ""close"": ""23:00"""
6562133824441115212,王功夜市,23.960519,120.3379351,芳苑鄉建成路,528,芳苑鄉,4.0,中部,彰化縣,https://maps.google.com/?cid=6562133824441115212,23.9618778302915,120.3392979802915,23.9591798697085,120.3366000197085,"""weekday"": 3, ""open"": ""18:00"", ""close"": ""22:00"""
18080217582674828721,芳苑草湖保安宮夜市,23.9578549,120.3847832,芳苑鄉二溪路草二段560號,528,芳苑鄉,3.7,中部,彰化縣,https://maps.google.com/?cid=18080217582674828721,23.9592020302915,120.3861065302915,23.9565040697085,120.3834085697085,"""weekday"": 1, ""open"": ""18:00"", ""close"": ""21:00"" / ""weekday"": 5, ""open"": ""18:00"", ""close"": ""21:00"""
6763078993186555609,二水夜市,23.812781,120.6134994,二水鄉五伯村,530,二水鄉,4.1,中部,彰化縣,https://maps.google.com/?cid=6763078993186555609,23.8140982802915,120.6147828802915,23.8114003197085,120.6120849197085,"""weekday"": 5, ""open"": ""17:30"", ""close"": ""22:00"""
3473717951394495838,南崗夜市,23.9295922,120.6704723,南投市成功二路,540,南投市,3.9,中部,南投縣,https://maps.google.com/?cid=3473717951394495838,23.9309690302915,120.6718069802915,23.92827106970849,120.6691090197085,"""weekday"": 4, ""open"": ""17:00"", ""close"": ""00:00"""
5242450253936689162,星期三南投市家樂福夜市,23.904621,120.689874,南投市三和二路,540,南投市,4.2,中部,南投縣,https://maps.google.com/?cid=5242450253936689162,23.9059091802915,120.6912370802915,23.9032112197085,120.6885391197085,"""weekday"": 3, ""open"": ""17:30"", ""close"": ""22:30"""
4767468860900913237,星期六南投市內轆夜市,23.9365206,120.694052,南投市內興路2號,540,南投市,4.1,中部,南投縣,https://maps.google.com/?cid=4767468860900913237,23.9379534302915,120.6955776802915,23.9352554697085,120.6928797197085,"""weekday"": 6, ""open"": ""17:30"", ""close"": ""22:00"""
10365301103832708879,週日祖祠路夜市,23.9182632,120.6855088,南投市祖祠東路46號,540,南投市,3.9,中部,南投縣,https://maps.google.com/?cid=10365301103832708879,23.9196232302915,120.6869897802915,23.91692526970849,120.6842918197085,"""weekday"": 0, ""open"": ""17:00"", ""close"": ""23:00"""
1175438555788511616,草鞋墩人文觀光夜市,23.9880686,120.6864882,草屯鎮中正路1037號,542,草屯鎮,4.2,中部,南投縣,https://maps.google.com/?cid=1175438555788511616,23.9896535802915,120.6878858802915,23.9869556197085,120.6851879197085,"""weekday"": 0, ""open"": ""17:30"", ""close"": ""23:00"" / ""weekday"": 2, ""open"": ""17:30"", ""close"": ""23:00"" / ""weekday"": 5, ""open"": ""17:30"", ""close"": ""23:00"" / ""weekday"": 6, ""open"": ""17:30"", ""close"": ""23:00"""
5496980205127092165,國姓夜市,24.0368539,120.8535056,國姓鄉國姓路,544,國姓鄉,4.3,中部,南投縣,https://maps.google.com/?cid=5496980205127092165,24.0382614302915,120.8547851302915,24.0355634697085,120.8520871697085,"""weekday"": 0, ""open"": ""17:00"", ""close"": ""21:30"""
11247312629852922751,埔里八德夜市,23.9715431,120.9673972,埔里鎮八德路73號,545,埔里鎮,3.7,中部,南投縣,https://maps.google.com/?cid=11247312629852922751,23.9728476802915,120.9687457302915,23.9701497197085,120.9660477697085,"""weekday"": 0, ""open"": ""16:00"", ""close"": ""00:00"" / ""weekday"": 1, ""open"": ""16:00"", ""close"": ""00:00"" / ""weekday"": 2, ""open"": ""16:00"", ""close"": ""00:00"" / ""weekday"": 3, ""open"": ""16:00"", ""close"": ""00:00"" / ""weekday"": 4, ""open"": ""16:00"", ""close"": ""00:00"" / ""weekday"": 5, ""open"": ""16:00"", ""close"": ""00:00"" / ""weekday"": 6, ""open"": ""16:00"", ""close"": ""00:00"""
10321197769849450508,埔里樹人夜市,23.9597153,120.9742777,埔里鎮埔里樹人夜市,545,埔里鎮,4.1,中部,南投縣,https://maps.google.com/?cid=10321197769849450508,23.9612455802915,120.9756917302915,23.95854761970849,120.9729937697085,"""weekday"": 3, ""open"": ""18:00"", ""close"": ""00:00"""
3375585934475612509,名間夜市,23.83682,120.7020983,名間鄉南雅街69號,551,名間鄉,3.9,中部,南投縣,https://maps.google.com/?cid=3375585934475612509,23.8381754802915,120.7035056802915,23.8354775197085,120.7008077197085,"""weekday"": 6, ""open"": ""17:00"", ""close"": ""22:00"""
8402669282113371736,松柏嶺夜市,23.8354301,120.6326627,名間鄉松嶺街23號,551,名間鄉,3.9,中部,南投縣,https://maps.google.com/?cid=8402669282113371736,23.8368277802915,120.6340928302915,23.8341298197085,120.6313948697085,"""weekday"": 5, ""open"": ""17:00"", ""close"": ""22:00"""
3325592772433878081,集集夜市,23.8283294,120.784536,集集鎮育才街188號,552,集集鎮,3.8,中部,南投縣,https://maps.google.com/?cid=3325592772433878081,23.8296742802915,120.7858656802915,23.8269763197085,120.7831677197085,"""weekday"": 2, ""open"": ""17:30"", ""close"": ""11:00"" / ""weekday"": 6, ""open"": ""17:30"", ""close"": ""11:00"""
9685338897168410811,水里夜市,23.8093055,120.850789,水里鄉中山路一段236號,553,水里鄉,4.0,中部,南投縣,https://maps.google.com/?cid=9685338897168410811,23.8106828302915,120.8522254302915,23.8079848697085,120.8495274697085,"""weekday"": 0, ""open"": ""16:30"", ""close"": ""22:00"" / ""weekday"": 4, ""open"": ""16:30"", ""close"": ""23:00"""
9829141773744910262,魚池夜市,23.9013126,120.9308878,魚池鄉,555,魚池鄉,3.9,中部,南投縣,https://maps.google.com/?cid=9829141773744910262,23.9025481802915,120.9321756802915,23.8998502197085,120.9294777197085,"""weekday"": 2, ""open"": ""17:00"", ""close"": ""22:00"""
947524568397079484,竹山星期四夜市,23.7574794,120.6880206,竹山鎮中正巷,557,竹山鎮,4.5,中部,南投縣,https://maps.google.com/?cid=947524568397079484,23.7588128802915,120.6893263302915,23.75611491970849,120.6866283697085,"""weekday"": 4, ""open"": ""16:30"", ""close"": ""00:00"""
17454272247907504825,星期五鹿谷夜市,23.7453969,120.752791,鹿谷鄉鹿彰路,558,鹿谷鄉,3.7,中部,南投縣,https://maps.google.com/?cid=17454272247907504825,23.7466953302915,120.7539992802915,23.7439973697085,120.7513013197085,"""weekday"": 1, ""open"": ""17:00"", ""close"": ""22:00"" / ""weekday"": 2, ""open"": ""17:00"", ""close"": ""22:00"" / ""weekday"": 3, ""open"": ""17:00"", ""close"": ""22:00"" / ""weekday"": 5, ""open"": ""17:00"", ""close"": ""22:00"""
12498364652742311335,嘉樂福夜市,23.4720461,120.4314952,西區博愛路二段467號,600,東區,3.9,南部,嘉義市,https://maps.google.com/?cid=12498364652742311335,23.4731756802915,120.4326319302915,23.4704777197085,120.4299339697085,"""weekday"": 0, ""open"": ""18:00"", ""close"": ""00:00"" / ""weekday"": 4, ""open"": ""18:00"", ""close"": ""00:00"" / ""weekday"": 5, ""open"": ""18:00"", ""close"": ""00:00"" / ""weekday"": 6, ""open"": ""18:00"", ""close"": ""00:00"""
6163556499327096060,嘉義市文化路觀光夜市,23.4796013,120.449684,西區文化路,600,東區,4.2,南部,嘉義市,https://maps.google.com/?cid=6163556499327096060,23.4809714302915,120.4510228302915,23.4782734697085,120.4483248697085,"""weekday"": 0, ""open"": ""15:30"", ""close"": ""23:00"" / ""weekday"": 1, ""open"": ""15:30"", ""close"": ""23:00"" / ""weekday"": 2, ""open"": ""15:30"", ""close"": ""23:00"" / ""weekday"": 3, ""open"": ""15:30"", ""close"": ""23:30"" / ""weekday"": 4, ""open"": ""15:30"", ""close"": ""23:00"" / ""weekday"": 5, ""open"": ""15:30"", ""close"": ""23:00"" / ""weekday"": 6, ""open"": ""15:30"", ""close"": ""23:30"""
17027516797666921657,彌陀夜市,23.4654127,120.4661118,東區立仁路,600,東區,4.2,南部,嘉義市,https://maps.google.com/?cid=17027516797666921657,23.4669468302915,120.4675093302915,23.46424886970849,120.4648113697085,"""weekday"": 3, ""open"": ""17:00"", ""close"": ""23:00"" / ""weekday"": 5, ""open"": ""17:00"", ""close"": ""23:00"""
8961321042000916735,湖美商展-嘉義夜市,23.4469844,120.4386192,西區湖美八路與健康二路口,600,東區,3.8,南部,嘉義市,https://maps.google.com/?cid=8961321042000916735,23.4482643302915,120.4399500802915,23.4455663697085,120.4372521197085,"""weekday"": 2, ""open"": ""17:30"", ""close"": ""23:00"" / ""weekday"": 6, ""open"": ""17:30"", ""close"": ""23:00"""
2740577350300918214,番路夜市,23.4653362,120.5496686,番路鄉,602,番路鄉,4.0,南部,嘉義縣,https://maps.google.com/?cid=2740577350300918214,23.4668022302915,120.5510986802915,23.4641042697085,120.5484007197085,"""weekday"": 5, ""open"": ""17:00"", ""close"": ""22:00"""
4087761245832270608,梅山夜市,23.5866383,120.5550127,梅山鄉梅北村,603,梅山鄉,4.1,南部,嘉義縣,https://maps.google.com/?cid=4087761245832270608,23.5879945302915,120.5564766802915,23.5852965697085,120.5537787197085,"""weekday"": 0, ""open"": ""17:00"", ""close"": ""22:30"""
10029082594931248221,竹崎夜市,23.517832,120.5493854,竹崎鄉民族路1號,604,竹崎鄉,4.5,南部,嘉義縣,https://maps.google.com/?cid=10029082594931248221,23.5191731802915,120.5507636802915,23.5164752197085,120.5480657197085,"""weekday"": 3, ""open"": ""17:00"", ""close"": ""22:00"" / ""weekday"": 6, ""open"": ""17:00"", ""close"": ""22:00"""
974026232489562554,汴頭夜市,23.4417414,120.5358362,阿里山公路中埔鄉嘉義縣18號,606,中埔鄉,4.2,南部,嘉義縣,https://maps.google.com/?cid=974026232489562554,23.4430168802915,120.5372119802915,23.4403189197085,120.5345140197085,"""weekday"": 2, ""open"": ""17:00"", ""close"": ""21:30"" / ""weekday"": 4, ""open"": ""17:00"", ""close"": ""21:30"""
10822901243424669796,中庄夜市,23.4209137,120.439271,水上鄉,608,水上鄉,,南部,嘉義縣,https://maps.google.com/?cid=10822901243424669796,23.4224831302915,120.4405689302915,23.4197851697085,120.4378709697085,"""weekday"": 6, ""open"": ""17:00"", ""close"": ""21:00"""
1556506587607836297,水上夜市,23.4306723,120.4116821,水上鄉,608,水上鄉,4.0,南部,嘉義縣,https://maps.google.com/?cid=1556506587607836297,23.4320078302915,120.4130361302915,23.4293098697085,120.4103381697085,"""weekday"": 0, ""open"": ""16:30"", ""close"": ""23:00"""
12759845405339893232,鹿草圓山宮夜市,23.4131624,120.306508,鹿草鄉長壽路297號,611,鹿草鄉,3.9,南部,嘉義縣,https://maps.google.com/?cid=12759845405339893232,23.4145489302915,120.3078422802915,23.41185096970849,120.3051443197085,"""weekday"": 0, ""open"": ""17:00"", ""close"": ""21:30"" / ""weekday"": 2, ""open"": ""17:00"", ""close"": ""21:30"" / ""weekday"": 4, ""open"": ""17:00"", ""close"": ""21:30"""
4705317032513652409,嘉義太保七主宮,23.4550907,120.292185,太保市祥和三路東段1號,612,太保市,4.9,南部,嘉義縣,https://maps.google.com/?cid=4705317032513652409,23.4562702302915,120.2937393802915,23.4535722697085,120.2910414197085,"""weekday"": 0, ""open"": ""07:00"", ""close"": ""20:00"" / ""weekday"": 1, ""open"": ""07:00"", ""close"": ""20:00"" / ""weekday"": 2, ""open"": ""07:00"", ""close"": ""21:00"" / ""weekday"": 3, ""open"": ""07:00"", ""close"": ""20:00"" / ""weekday"": 4, ""open"": ""07:00"", ""close"": ""21:00"" / ""weekday"": 5, ""open"": ""07:00"", ""close"": ""20:00"" / ""weekday"": 6, ""open"": ""07:00"", ""close"": ""20:00"""
14195076136105029077,後潭夜市,23.4523047,120.3446215,太保市前潭里,612,太保市,4.1,南部,嘉義縣,https://maps.google.com/?cid=14195076136105029077,23.4536534302915,120.3459753302915,23.4509554697085,120.3432773697085,"""weekday"": 5, ""open"": ""17:30"", ""close"": ""22:00"""
1592005351914278220,新埤觀光夜市,23.4861529,120.3348606,太保市,612,太保市,4.2,南部,嘉義縣,https://maps.google.com/?cid=1592005351914278220,23.4874900302915,120.3361914802915,23.4847920697085,120.3334935197085,"""weekday"": 3, ""open"": ""16:30"", ""close"": ""20:30"""
4629656262480265292,麻魚寮夜市,23.4997695,120.3681803,太保市古恩宮前廣場,612,太保市,4.0,南部,嘉義縣,https://maps.google.com/?cid=4629656262480265292,23.5011265302915,120.3695604302915,23.4984285697085,120.3668624697085,"""weekday"": 0, ""open"": ""18:00"", ""close"": ""22:00"" / ""weekday"": 4, ""open"": ""17:00"", ""close"": ""22:00"" / ""weekday"": 6, ""open"": ""17:00"", ""close"": ""22:00"""
8980163008486398132,朴子週六夜市,23.4594013,120.245856,朴子市光復新路三安路,613,朴子市,4.4,南部,嘉義縣,https://maps.google.com/?cid=8980163008486398132,23.4607650302915,120.2472426802915,23.4580670697085,120.2445447197085,"""weekday"": 6, ""open"": ""17:00"", ""close"": ""23:00"""
15733206328184629889,先天宮廟口夜市,23.456836,120.1490776,東石鄉243號先天宮前,614,東石鄉,4.5,南部,嘉義縣,https://maps.google.com/?cid=15733206328184629889,23.4581926802915,120.1504287302915,23.4554947197085,120.1477307697085,"""weekday"": 2, ""open"": ""16:30"", ""close"": ""20:00"""
15687631899317106393,蒜頭夜市,23.4903912,120.2912468,六腳鄉蒜南村,615,六腳鄉,4.4,南部,嘉義縣,https://maps.google.com/?cid=15687631899317106393,23.4917420302915,120.2926310802915,23.4890440697085,120.2899331197085,"""weekday"": 4, ""open"": ""16:30"", ""close"": ""21:30"""
5413853031201397568,新港觀光夜市,23.5610135,120.3508452,新港鄉藝高路,616,新港鄉,4.2,南部,嘉義縣,https://maps.google.com/?cid=5413853031201397568,23.56235778029151,120.3522339802915,23.5596598197085,120.3495360197085,"""weekday"": 4, ""open"": ""17:30"", ""close"": ""23:00"""
1234353470663297116,大林夜市,23.6041423,120.4624245,大林鎮水源路49號號旁,622,大林鎮,4.4,南部,嘉義縣,https://maps.google.com/?cid=1234353470663297116,23.6055082302915,120.4638360802915,23.6028102697085,120.4611381197085,"""weekday"": 1, ""open"": ""17:00"", ""close"": ""22:00"""
2560070443553664452,溪口夜市,23.6027485,120.3985222,溪口鄉民族西路65號,623,溪口鄉,4.1,南部,嘉義縣,https://maps.google.com/?cid=2560070443553664452,23.6042088302915,120.3998965802915,23.6015108697085,120.3971986197085,"""weekday"": 4, ""open"": ""17:00"", ""close"": ""23:00"""
101923518505085089,布袋夜市,23.3778104,120.1563995,布袋鎮,625,布袋鎮,4.1,南部,嘉義縣,https://maps.google.com/?cid=101923518505085089,23.3791303802915,120.1577318302915,23.3764324197085,120.1550338697085,"""weekday"": 0, ""open"": ""17:00"", ""close"": ""00:00"""
5756806973147606400,新塭夜市,23.3271086,120.1592162,布袋鎮西部濱海公路179號號,625,布袋鎮,4.1,南部,嘉義縣,https://maps.google.com/?cid=5756806973147606400,23.3284576302915,120.1605614802915,23.3257596697085,120.1578635197085,"""weekday"": 6, ""open"": ""17:30"", ""close"": ""21:30"""
2066386375533198234,斗南夜市,23.6777376,120.4670922,斗南鎮中興路,630,斗南鎮,4.3,中部,雲林縣,https://maps.google.com/?cid=2066386375533198234,23.6790933802915,120.4684476302915,23.6763954197085,120.4657496697085,"""weekday"": 6, ""open"": ""17:00"", ""close"": ""00:00"""
8856476801367428791,石龜夜市,23.6419363,120.4821907,斗南鎮,630,斗南鎮,3.7,中部,雲林縣,https://maps.google.com/?cid=8856476801367428791,23.6433126802915,120.4835088302915,23.6406147197085,120.4808108697085,"""weekday"": 2, ""open"": ""18:00"", ""close"": ""23:00"""
13214140139136680607,虎尾夜市,23.7157473,120.4287414,虎尾鎮光復路820號,632,虎尾鎮,4.4,中部,雲林縣,https://maps.google.com/?cid=13214140139136680607,23.7170307302915,120.4302073802915,23.7143327697085,120.4275094197085,"""weekday"": 3, ""open"": ""17:00"", ""close"": ""01:00"" / ""weekday"": 5, ""open"": ""17:00"", ""close"": ""01:00"""
16649744497190824205,土庫夜市,23.6776627,120.3941039,土庫鎮長榮街49號,633,土庫鎮,4.0,中部,雲林縣,https://maps.google.com/?cid=16649744497190824205,23.6791511802915,120.3954266802915,23.6764532197085,120.3927287197085,"""weekday"": 1, ""open"": ""17:00"", ""close"": ""22:00"""
16123585128002913352,馬光夜市,23.7048469,120.3530906,土庫鎮,633,土庫鎮,3.9,中部,雲林縣,https://maps.google.com/?cid=16123585128002913352,23.7061971802915,120.3543932802915,23.70349921970849,120.3516953197085,"""weekday"": 3, ""open"": ""17:00"", ""close"": ""22:30"""
16896252970301567420,褒忠夜市,23.6933684,120.3045352,褒忠鄉添財街21號,634,褒忠鄉,4.1,中部,雲林縣,https://maps.google.com/?cid=16896252970301567420,23.69472603029151,120.3058006802915,23.6920280697085,120.3031027197085,"""weekday"": 4, ""open"": ""17:00"", ""close"": ""23:00"""
9493723949099773674,台西夜市,23.6997233,120.1969518,台西鄉,636,臺西鄉,4.2,中部,雲林縣,https://maps.google.com/?cid=9493723949099773674,23.70110973029151,120.1983001302915,23.6984117697085,120.1956021697085,"""weekday"": 6, ""open"": ""17:00"", ""close"": ""20:50"""
2999318964930521029,崙豐夜市,23.72188,120.2095213,台西鄉永豐村,636,臺西鄉,3.9,中部,雲林縣,https://maps.google.com/?cid=2999318964930521029,23.7231802802915,120.2109724802915,23.72048231970849,120.2082745197085,"""weekday"": 0, ""open"": ""16:40"", ""close"": ""22:00"""
3200482483734183307,崙背夜市,23.7603447,120.3471237,崙背鄉忠孝街49號,637,崙背鄉,4.0,中部,雲林縣,https://maps.google.com/?cid=3200482483734183307,23.7616787802915,120.3484661302915,23.75898081970849,120.3457681697085,"""weekday"": 2, ""open"": ""17:01"", ""close"": ""23:01"" / ""weekday"": 5, ""open"": ""17:01"", ""close"": ""23:01"""
10163869609202520797,泰安宮夜市,23.7967453,120.2720718,麥寮鄉橋頭村,638,麥寮鄉,4.0,中部,雲林縣,https://maps.google.com/?cid=10163869609202520797,23.7980625302915,120.2734189802915,23.7953645697085,120.2707210197085,"""weekday"": 1, ""open"": ""17:00"", ""close"": ""23:00"" / ""weekday"": 6, ""open"": ""17:00"", ""close"": ""23:00"""
1503046770782307138,麥寮鎮南宮夜市,23.7466244,120.2514484,麥寮鄉新興路27號,638,麥寮鄉,4.4,中部,雲林縣,https://maps.google.com/?cid=1503046770782307138,23.7479431302915,120.2527757302915,23.7452451697085,120.2500777697085,"""weekday"": 4, ""open"": ""17:00"", ""close"": ""00:00"""
2631635067118874430,大崙夜市,23.6800546,120.5382552,斗六市仁義路44號,640,斗六市,4.2,中部,雲林縣,https://maps.google.com/?cid=2631635067118874430,23.6814088302915,120.5396788302915,23.6787108697085,120.5369808697085,"""weekday"": 0, ""open"": ""17:00"", ""close"": ""21:30"" / ""weekday"": 1, ""open"": ""17:00"", ""close"": ""21:30"" / ""weekday"": 2, ""open"": ""17:00"", ""close"": ""21:30"" / ""weekday"": 3, ""open"": ""17:00"", ""close"": ""21:30"" / ""weekday"": 4, ""open"": ""17:00"", ""close"": ""21:30"" / ""weekday"": 5, ""open"": ""17:00"", ""close"": ""21:30"" / ""weekday"": 6, ""open"": ""17:00"", ""close"": ""21:30"""
11099752454083228012,斗六成功夜市,23.7055324,120.5497396,雲林縣斗六市成功二街,640,斗六市,4.2,未分類,,https://maps.google.com/?cid=11099752454083228012,23.7068571802915,120.5510669802915,23.7041592197085,120.5483690197085,"""weekday"": 3, ""open"": ""17:00"", ""close"": ""00:00"" / ""weekday"": 6, ""open"": ""17:00"", ""close"": ""01:00"""
2741571505735864110,斗六觀光夜市,23.6962586,120.5430775,斗六市鎮南路421巷2號,640,斗六市,4.4,中部,雲林縣,https://maps.google.com/?cid=2741571505735864110,23.6975126802915,120.5444162302915,23.6948147197085,120.5417182697085,"""weekday"": 0, ""open"": ""17:00"", ""close"": ""23:00"" / ""weekday"": 2, ""open"": ""17:00"", ""close"": ""23:00"" / ""weekday"": 6, ""open"": ""17:00"", ""close"": ""00:00"""
6966192543380750018,石榴班夜市,23.7238279,120.5839105,斗六市石榴路,640,斗六市,4.0,中部,雲林縣,https://maps.google.com/?cid=6966192543380750018,23.7251982802915,120.5852277302915,23.7225003197085,120.5825297697085,"""weekday"": 4, ""open"": ""17:00"", ""close"": ""00:00"""
18040014069724944692,林內夜市,23.7602993,120.616546,林內鄉,643,林內鄉,4.1,中部,雲林縣,https://maps.google.com/?cid=18040014069724944692,23.7616658302915,120.6179178302915,23.7589678697085,120.6152198697085,"""weekday"": 2, ""open"": ""17:00"", ""close"": ""22:30"""
888307839608755290,古坑夜市,23.6475853,120.5572208,古坑鄉西平路27-1號,646,古坑鄉,4.0,中部,雲林縣,https://maps.google.com/?cid=888307839608755290,23.6488747802915,120.5585618802915,23.64617681970849,120.5558639197085,"""weekday"": 3, ""open"": ""16:30"", ""close"": ""21:30"""
1570836454330120565,莿桐夜市,23.7556445,120.4977743,莿桐鄉,647,莿桐鄉,4.1,中部,雲林縣,https://maps.google.com/?cid=1570836454330120565,23.7570569802915,120.4990932302915,23.7543590197085,120.4963952697085,"""weekday"": 5, ""open"": ""17:00"", ""close"": ""23:00"""
5980196298760932902,吳厝夜市,23.7459192,120.4233235,西螺鎮吳厝路99-3號,648,西螺鎮,4.8,中部,雲林縣,https://maps.google.com/?cid=5980196298760932902,23.7472712802915,120.4246513302915,23.7445733197085,120.4219533697085,"""weekday"": 4, ""open"": ""16:30"", ""close"": ""21:30"""
4821181017252311762,東南觀光夜市,23.8022621,120.4489527,西螺鎮東南路,648,西螺鎮,4.4,中部,雲林縣,https://maps.google.com/?cid=4821181017252311762,23.8035780802915,120.4503075802915,23.8008801197085,120.4476096197085,"""weekday"": 0, ""open"": ""17:00"", ""close"": ""23:30"" / ""weekday"": 4, ""open"": ""17:00"", ""close"": ""23:30"""
9970756205770457794,二崙夜市,23.7687591,120.4098666,二崙鄉中山路107號,649,二崙鄉,4.2,中部,雲林縣,https://maps.google.com/?cid=9970756205770457794,23.7701327802915,120.4112413802915,23.7674348197085,120.4085434197085,"""weekday"": 3, ""open"": ""18:00"", ""close"": ""21:30"""
7783325727879291014,同仁夜市,23.575303,120.293517,北港鎮文仁路,651,北港鎮,4.2,中部,雲林縣,https://maps.google.com/?cid=7783325727879291014,23.5768022802915,120.2950641302915,23.5741043197085,120.2923661697085,"""weekday"": 3, ""open"": ""17:00"", ""close"": ""23:30"" / ""weekday"": 6, ""open"": ""17:00"", ""close"": ""23:30"""
3300997069429417923,下崙夜市,23.6179724,120.1612757,口湖鄉福安路,653,口湖鄉,4.1,中部,雲林縣,https://maps.google.com/?cid=3300997069429417923,23.6192928302915,120.1624641802915,23.6165948697085,120.1597662197085,"""weekday"": 3, ""open"": ""17:00"", ""close"": ""23:00"""
10356950461739323314,四湖參天宮,23.638832,120.2266345,四湖鄉關聖路87號,654,四湖鄉,4.7,中部,雲林縣,https://maps.google.com/?cid=10356950461739323314,23.6401208302915,120.2280238302915,23.6374228697085,120.2253258697085,"""weekday"": 0, ""open"": ""05:30"", ""close"": ""21:30"" / ""weekday"": 1, ""open"": ""05:30"", ""close"": ""21:30"" / ""weekday"": 2, ""open"": ""05:30"", ""close"": ""21:30"" / ""weekday"": 3, ""open"": ""05:30"", ""close"": ""21:30"" / ""weekday"": 4, ""open"": ""05:30"", ""close"": ""21:30"" / ""weekday"": 5, ""open"": ""05:30"", ""close"": ""21:30"" / ""weekday"": 6, ""open"": ""05:30"", ""close"": ""21:30"""
6161976147493611605,元長夜市,23.6499322,120.3139715,元長鄉元中路70號,655,元長鄉,4.0,中部,雲林縣,https://maps.google.com/?cid=6161976147493611605,23.6512779802915,120.3152876802915,23.6485800197085,120.3125897197085,"""weekday"": 2, ""open"": ""17:00"", ""close"": ""22:30"""
14543610971589612815,武聖夜市,23.003458,120.1905098,中西區武聖路69巷,700,中西區,4.3,南部,臺南市,https://maps.google.com/?cid=14543610971589612815,23.0048257802915,120.1919021802915,23.0021278197085,120.1892042197085,"""weekday"": 3, ""open"": ""17:00"", ""close"": ""00:00"" / ""weekday"": 5, ""open"": ""17:00"", ""close"": ""00:00"" / ""weekday"": 6, ""open"": ""17:00"", ""close"": ""00:00"""
18085379175038376301,大東夜市,22.9826132,120.2193412,東區林森路一段276號,701,東區,4.3,南部,臺南市,https://maps.google.com/?cid=18085379175038376301,22.9842195302915,120.2206704802915,22.98152156970849,120.2179725197085,"""weekday"": 1, ""open"": ""18:00"", ""close"": ""01:00"" / ""weekday"": 2, ""open"": ""18:00"", ""close"": ""01:00"" / ""weekday"": 5, ""open"": ""18:00"", ""close"": ""01:00"""
13834010508755815864,灣裡夜市,22.928357,120.181769,南區,702,南區,4.0,南部,臺南市,https://maps.google.com/?cid=13834010508755815864,22.9296895802915,120.1830424802915,22.9269916197085,120.1803445197085,"""weekday"": 3, ""open"": ""18:00"", ""close"": ""23:00"" / ""weekday"": 6, ""open"": ""18:00"", ""close"": ""23:00"""
2711308167295456382,小北新成功夜市,23.0105854,120.2079175,北區西門路四段171巷2號,704,北區,4.1,南部,台南市,https://maps.google.com/?cid=2711308167295456382,23.0118772302915,120.2092446802915,23.0091792697085,120.2065467197085,"""weekday"": 2, ""open"": ""17:00"", ""close"": ""00:00"" / ""weekday"": 5, ""open"": ""17:00"", ""close"": ""00:00"""
11549058355932890196,小北觀光夜市,23.0081787,120.2067871,北區西門路四段101號,704,北區,3.9,南部,臺南市,https://maps.google.com/?cid=11549058355932890196,23.0095475802915,120.2081470802915,23.0068496197085,120.2054491197085,"""weekday"": 0, ""open"": ""14:00"", ""close"": ""00:00"" / ""weekday"": 1, ""open"": ""14:00"", ""close"": ""00:00"" / ""weekday"": 2, ""open"": ""14:00"", ""close"": ""00:00"" / ""weekday"": 3, ""open"": ""14:00"", ""close"": ""00:00"" / ""weekday"": 4, ""open"": ""14:00"", ""close"": ""00:00"" / ""weekday"": 5, ""open"": ""14:00"", ""close"": ""00:00"" / ""weekday"": 6, ""open"": ""14:00"", ""close"": ""00:00"""
123050532196439482,新永華夜市,22.9892468,120.1747284,安平區華平路建平七街 十字路口,708,安平區,4.2,南部,臺南市,https://maps.google.com/?cid=123050532196439482,22.9905924802915,120.1761080802915,22.9878945197085,120.1734101197085,"""weekday"": 0, ""open"": ""17:00"", ""close"": ""23:30"" / ""weekday"": 4, ""open"": ""17:00"", ""close"": ""23:30"""
2946920411232441985,中洲寮夜市,23.0695188,120.2205805,安南區安昌街174巷79弄2號,709,安南區,4.3,南部,臺南市,https://maps.google.com/?cid=2946920411232441985,23.0709801802915,120.2218446802915,23.0682822197085,120.2191467197085,"""weekday"": 2, ""open"": ""17:00"", ""close"": ""23:00"" / ""weekday"": 6, ""open"": ""17:00"", ""close"": ""23:00"""
8638877620686232273,什二佃夜市,23.0662504,120.1752702,安南區公學路四段,709,安南區,4.0,南部,臺南市,https://maps.google.com/?cid=8638877620686232273,23.0675905302915,120.1766268802915,23.0648925697085,120.1739289197085,"""weekday"": 1, ""open"": ""18:00"", ""close"": ""22:00"""
14905196476062724948,土城聖母廟夜市,23.0668428,120.1273353,安南區城安路160號,709,安南區,4.4,南部,臺南市,https://maps.google.com/?cid=14905196476062724948,23.06819333029151,120.1287225302915,23.0654953697085,120.1260245697085,"""weekday"": 4, ""open"": ""16:30"", ""close"": ""22:30"" / ""weekday"": 6, ""open"": ""16:30"", ""close"": ""22:30"""
8564637048211041212,安中夜市,23.0437631,120.1960204,安南區安中路一段,709,安南區,4.1,南部,臺南市,https://maps.google.com/?cid=8564637048211041212,23.0451384802915,120.1973468302915,23.0424405197085,120.1946488697085,"""weekday"": 3, ""open"": ""17:30"", ""close"": ""22:30"" / ""weekday"": 6, ""open"": ""17:30"", ""close"": ""22:30"""
2291655097531245575,新同安夜市,23.0400996,120.1901304,安南區同安路與號大安街口,709,安南區,4.0,南部,臺南市,https://maps.google.com/?cid=2291655097531245575,23.0414113802915,120.1913725302915,23.0387134197085,120.1886745697085,"""weekday"": 2, ""open"": ""17:00"", ""close"": ""22:30"" / ""weekday"": 5, ""open"": ""17:00"", ""close"": ""22:30"""
16303958071348207001,本淵寮夜市,23.0525048,120.1741246,安南區本原街三段228號,709,安南區,4.1,南部,臺南市,https://maps.google.com/?cid=16303958071348207001,23.0537124802915,120.1755620802915,23.0510145197085,120.1728641197085,"""weekday"": 5, ""open"": ""17:00"", ""close"": ""22:00"""
3788289214973357741,樺谷夜市,23.0264835,120.1939769,安南區安富街346號,709,安南區,4.0,南部,臺南市,https://maps.google.com/?cid=3788289214973357741,23.0277110802915,120.1953516302915,23.0250131197085,120.1926536697085,"""weekday"": 0, ""open"": ""17:30"", ""close"": ""22:30"""
10539780600504661236,南工夜市,23.014461,120.2342794,永康區中山南路260號,710,永康區,4.1,南部,臺南市,https://maps.google.com/?cid=10539780600504661236,23.0158445302915,120.2356089802915,23.0131465697085,120.2329110197085,"""weekday"": 1, ""open"": ""17:30"", ""close"": ""00:00"" / ""weekday"": 2, ""open"": ""17:30"", ""close"": ""00:00"" / ""weekday"": 3, ""open"": ""17:30"", ""close"": ""00:00"" / ""weekday"": 4, ""open"": ""17:30"", ""close"": ""00:00"" / ""weekday"": 5, ""open"": ""17:30"", ""close"": ""00:00"" / ""weekday"": 6, ""open"": ""17:30"", ""close"": ""00:00"""
7957438657701594281,大灣夜市,23.0071828,120.2674445,永康區大灣路288巷6號,710,永康區,4.1,南部,臺南市,https://maps.google.com/?cid=7957438657701594281,23.0085330302915,120.2687940302915,23.0058350697085,120.2660960697085,"""weekday"": 0, ""open"": ""16:30"", ""close"": ""22:30"""
12879254742510068199,復華夜市,23.009068,120.2457479,永康區復華三街與號號交岔口,710,永康區,3.9,南部,臺南市,https://maps.google.com/?cid=12879254742510068199,23.0107462802915,120.2469968802915,23.0080483197085,120.2442989197085,"""weekday"": 2, ""open"": ""17:30"", ""close"": ""00:00"" / ""weekday"": 5, ""open"": ""17:30"", ""close"": ""00:00"""
14162129631849500787,永大夜市,23.0189932,120.262842,永康區永大路二段,710,永康區,4.2,南部,臺南市,https://maps.google.com/?cid=14162129631849500787,23.0204854802915,120.2643004802915,23.0177875197085,120.2616025197085,"""weekday"": 0, ""open"": ""17:00"", ""close"": ""00:00"" / ""weekday"": 1, ""open"": ""17:00"", ""close"": ""00:00"" / ""weekday"": 4, ""open"": ""17:00"", ""close"": ""00:00"" / ""weekday"": 6, ""open"": ""17:00"", ""close"": ""00:00"""
3092591279711128986,聖龍街夜市,23.0304599,120.2597679,永康區聖龍街152號,710,永康區,4.2,南部,臺南市,https://maps.google.com/?cid=3092591279711128986,23.0318683802915,120.2610985302915,23.0291704197085,120.2584005697085,"""weekday"": 3, ""open"": ""17:00"", ""close"": ""21:30"""
7662054962391121877,鹽行夜市,23.0414316,120.2371441,永康區鹽行路,710,永康區,4.1,南部,臺南市,https://maps.google.com/?cid=7662054962391121877,23.0427821802915,120.2384945302915,23.0400842197085,120.2357965697085,"""weekday"": 1, ""open"": ""17:00"", ""close"": ""00:00"""
16884969064077346615,歸仁國中夜市,22.9695589,120.2926186,歸仁區民族北街22號,711,歸仁區,4.1,南部,臺南市,https://maps.google.com/?cid=16884969064077346615,22.9709122802915,120.2939203802915,22.9682143197085,120.2912224197085,"""weekday"": 3, ""open"": ""17:00"", ""close"": ""22:00"""
12818519195330706664,歸仁復興路夜市,22.9654178,120.2963943,歸仁區和平南街1號,711,歸仁區,4.3,南部,臺南市,https://maps.google.com/?cid=12818519195330706664,22.9667447802915,120.2977389302915,22.96404681970849,120.2950409697085,"""weekday"": 4, ""open"": ""18:00"", ""close"": ""21:00"""
77735826805556431,新化正新路夜市,23.0360163,120.3028985,新化區正新路208號,712,新化區,3.8,南部,臺南市,https://maps.google.com/?cid=77735826805556431,23.0373648802915,120.3042699802915,23.0346669197085,120.3015720197085,"""weekday"": 2, ""open"": ""16:00"", ""close"": ""21:30"""
14920012552531780947,玉井夜市,23.1238598,120.4667838,玉井區民族路155號,714,玉井區,4.1,南部,臺南市,https://maps.google.com/?cid=14920012552531780947,23.1251772802915,120.4681321802915,23.1224793197085,120.4654342197085,"""weekday"": 3, ""open"": ""16:00"", ""close"": ""23:00"" / ""weekday"": 6, ""open"": ""16:00"", ""close"": ""23:00"""
698038161842260717,太子廟夜市,22.991532,120.25686,仁德區太子路354號,717,仁德區,4.5,南部,臺南市,https://maps.google.com/?cid=698038161842260717,22.99281043029151,120.2582055302915,22.9901124697085,120.2555075697085,"""weekday"": 5, ""open"": ""17:00"", ""close"": ""22:00"""
5035491806667010217,鍾厝夜市,22.9703729,120.2559276,仁德區仁義路95巷11弄6號,717,仁德區,4.1,南部,臺南市,https://maps.google.com/?cid=5035491806667010217,22.9717190802915,120.2573148302915,22.9690211197085,120.2546168697085,"""weekday"": 2, ""open"": ""17:00"", ""close"": ""23:00"""
4788669320755888933,關廟夜市,22.9605145,120.3293339,關廟區仁愛路63號,718,關廟區,4.0,南部,臺南市,https://maps.google.com/?cid=4788669320755888933,22.9618520802915,120.3306785302915,22.9591541197085,120.3279805697085,"""weekday"": 1, ""open"": ""16:00"", ""close"": ""22:30"" / ""weekday"": 5, ""open"": ""16:00"", ""close"": ""22:30"""
11812352395343823912,隆田夜市,23.1925111,120.3156035,官田區,720,官田區,4.2,南部,臺南市,https://maps.google.com/?cid=11812352395343823912,23.1939219802915,120.3169169302915,23.1912240197085,120.3142189697085,"""weekday"": 6, ""open"": ""16:00"", ""close"": ""22:00"""
11382490970841752641,麻豆夜市,23.1840346,120.2457694,麻豆區三民路80號,721,麻豆區,4.3,南部,臺南市,https://maps.google.com/?cid=11382490970841752641,23.1853837802915,120.2471355302915,23.1826858197085,120.2444375697085,"""weekday"": 1, ""open"": ""16:00"", ""close"": ""00:00"""
9657333159158275674,佳里夜市,23.157368,120.1814236,佳里區平等街46號,722,佳里區,4.4,南部,臺南市,https://maps.google.com/?cid=9657333159158275674,23.1586897302915,120.1827774802915,23.1559917697085,120.1800795197085,"""weekday"": 4, ""open"": ""17:00"", ""close"": ""23:00"""
10941414482925704964,安西夜市,23.164853,120.167561,佳里區佳西路,722,佳里區,4.2,南部,臺南市,https://maps.google.com/?cid=10941414482925704964,23.1662002302915,120.1689824302915,23.16350226970849,120.1662844697085,"""weekday"": 3, ""open"": ""17:00"", ""close"": ""23:00"" / ""weekday"": 6, ""open"": ""17:00"", ""close"": ""23:00"""
4257245758067792410,西港夜市,23.1203464,120.2025375,西港區慶安路33巷9號,723,西港區,4.0,南部,臺南市,https://maps.google.com/?cid=4257245758067792410,23.12169893029151,120.2039237802915,23.1190009697085,120.2012258197085,"""weekday"": 2, ""open"": ""17:00"", ""close"": ""22:00"" / ""weekday"": 5, ""open"": ""17:00"", ""close"": ""22:00"""
8669858328371196305,學甲天仁夜市,23.2364388,120.1786035,學甲區天水路30號,726,學甲區,4.1,南部,臺南市,https://maps.google.com/?cid=8669858328371196305,23.2377611802915,120.1797822802915,23.2350632197085,120.1770843197085,"""weekday"": 3, ""open"": ""17:00"", ""close"": ""22:30"""
12520220913740653859,新營中華路夜市,23.3043656,120.309629,新營區民生路與號民權里中華路,730,新營區,4.6,南部,臺南市,https://maps.google.com/?cid=12520220913740653859,23.3057109802915,120.3109618802915,23.3030130197085,120.3082639197085,"""weekday"": 6, ""open"": ""16:00"", ""close"": ""23:30"""
4926742282547467552,新進夜市,23.3008861,120.3060913,新營區新進路二段238-254號,730,新營區,4.0,南部,臺南市,https://maps.google.com/?cid=4926742282547467552,23.3020993302915,120.3074337802915,23.29940136970849,120.3047358197085,"""weekday"": 0, ""open"": ""17:30"", ""close"": ""22:30"" / ""weekday"": 4, ""open"": ""17:30"", ""close"": ""22:30"""
5937780568891255294,白河夜市,23.3537492,120.4186739,白河區長安路98號,732,白河區,4.0,南部,臺南市,https://maps.google.com/?cid=5937780568891255294,23.3550704802915,120.4200016302915,23.3523725197085,120.4173036697085,"""weekday"": 2, ""open"": ""17:00"", ""close"": ""21:00"""
13375196195293589566,六甲夜市,23.23053,120.3521904,六甲區復興街114號,734,六甲區,4.2,南部,臺南市,https://maps.google.com/?cid=13375196195293589566,23.2318504302915,120.3535323802915,23.2291524697085,120.3508344197085,"""weekday"": 5, ""open"": ""16:30"", ""close"": ""21:30"""
14966645599707439700,下營夜市,23.2316198,120.2621453,下營區,735,下營區,4.1,南部,臺南市,https://maps.google.com/?cid=14966645599707439700,23.2329588302915,120.2634724802915,23.23026086970849,120.2607745197085,"""weekday"": 0, ""open"": ""17:00"", ""close"": ""21:00"""
703009223544236766,中營夜市,23.2145648,120.2759942,下營區開化里,735,下營區,3.9,南部,臺南市,https://maps.google.com/?cid=703009223544236766,23.2158770302915,120.2774303802915,23.2131790697085,120.2747324197085,"""weekday"": 6, ""open"": ""15:00"", ""close"": ""22:00"""
4269198337182296452,小腳腿夜市,23.291579,120.3653717,柳營區明聖殿附近,736,柳營區,4.5,南部,臺南市,https://maps.google.com/?cid=4269198337182296452,23.2929242802915,120.3667776302915,23.2902263197085,120.3640796697085,"""weekday"": 1, ""open"": ""16:30"", ""close"": ""21:30"""
4276686280128654182,柳營夜市,23.2788842,120.3170715,柳營區成功街,736,柳營區,4.3,南部,臺南市,https://maps.google.com/?cid=4276686280128654182,23.2802176802915,120.3184217802915,23.27751971970849,120.3157238197085,"""weekday"": 4, ""open"": ""17:00"", ""close"": ""21:00"""
17924799850005259026,鹽水夜市,23.3234418,120.268494,鹽水區清湶路137號,737,鹽水區,4.2,南部,臺南市,https://maps.google.com/?cid=17924799850005259026,23.3247823302915,120.2698435802915,23.3220843697085,120.2671456197085,"""weekday"": 3, ""open"": ""17:00"", ""close"": ""23:00"""
15027606273052334652,善化夜市,23.1277085,120.2976019,善化區興華路建國路,741,善化區,4.2,南部,臺南市,https://maps.google.com/?cid=15027606273052334652,23.1292327802915,120.2988916802915,23.1265348197085,120.2961937197085,"""weekday"": 0, ""open"": ""17:00"", ""close"": ""00:00"" / ""weekday"": 2, ""open"": ""17:00"", ""close"": ""00:00"" / ""weekday"": 5, ""open"": ""17:00"", ""close"": ""00:00"""
1498125896429283087,山上夜市,23.1023274,120.3534269,山上區南洲里,743,山上區,4.1,南部,臺南市,https://maps.google.com/?cid=1498125896429283087,23.10372888029151,120.3548240802915,23.1010309197085,120.3521261197085,"""weekday"": 1, ""open"": ""17:30"", ""close"": ""22:30"""
16023772733826504359,新市夜市,23.0767094,120.2917587,新市區新和里,744,新市區,4.0,南部,臺南市,https://maps.google.com/?cid=16023772733826504359,23.07767203029151,120.2930351802915,23.0749740697085,120.2903372197085,"""weekday"": 0, ""open"": ""17:00"", ""close"": ""23:30"""
